[
    {
        "id": 73,
        "name": "Abbigeri",
        "country_id": 76,
        "is_active": "TRUE",
        "lat": 13.0767,
        "long": 77.525
    },
    {
        "id": 74,
        "name": "Abbigeri",
        "country_id": 76,
        "is_active": "TRUE",
        "lat": 15.5862,
        "long": 75.7502
    },
    {
        "id": 81,
        "name": "Abdullahnagar",
        "country_id": 76,
        "is_active": "TRUE",
        "lat": 25.7683,
        "long": 87.5557
    },
    {
        "id": 105,
        "name": "Abhayapuri",
        "country_id": 76,
        "is_active": "TRUE",
        "lat": 26.3225,
        "long": 90.6853
    },
    {
        "id": 106,
        "name": "Abhia",
        "country_id": 76,
        "is_active": "TRUE",
        "lat": 25.3499,
        "long": 87.1427
    },
    {
        "id": 107,
        "name": "Abhwar",
        "country_id": 76,
        "is_active": "TRUE",
        "lat": 26.174,
        "long": 86.6324
    },
    {
        "id": 117,
        "name": "Abiramam",
        "country_id": 76,
        "is_active": "TRUE",
        "lat": 9.4423,
        "long": 78.4399
    },
    {
        "id": 120,
        "name": "Ablu",
        "country_id": 76,
        "is_active": "TRUE",
        "lat": 30.3391,
        "long": 74.7879
    },
    {
        "id": 122,
        "name": "Abohar",
        "country_id": 76,
        "is_active": "TRUE",
        "lat": 30.1334,
        "long": 74.2001
    },
    {
        "id": 146,
        "name": "Abu",
        "country_id": 76,
        "is_active": "TRUE",
        "lat": 24.5925,
        "long": 72.7083
    },
    {
        "id": 208,
        "name": "Achaljamu",
        "country_id": 76,
        "is_active": "TRUE",
        "lat": 24.0243,
        "long": 85.8306
    },
    {
        "id": 209,
        "name": "Achampet",
        "country_id": 76,
        "is_active": "TRUE",
        "lat": 16.6299,
        "long": 80.1213
    },
    {
        "id": 210,
        "name": "Achankovil",
        "country_id": 76,
        "is_active": "TRUE",
        "lat": 8.9667,
        "long": 77.1431
    },
    {
        "id": 211,
        "name": "Acharipallam",
        "country_id": 76,
        "is_active": "TRUE",
        "lat": 8.17,
        "long": 77.3698
    },
    {
        "id": 213,
        "name": "Achchampeta",
        "country_id": 76,
        "is_active": "TRUE",
        "lat": 17.0941,
        "long": 82.3099
    },
    {
        "id": 214,
        "name": "Achchippatti",
        "country_id": 76,
        "is_active": "TRUE",
        "lat": 10.6989,
        "long": 77.015
    },
    {
        "id": 217,
        "name": "Achhnera",
        "country_id": 76,
        "is_active": "TRUE",
        "lat": 27.18,
        "long": 77.77
    },
    {
        "id": 274,
        "name": "Adalaj",
        "country_id": 76,
        "is_active": "TRUE",
        "lat": 23.17,
        "long": 72.58
    },
    {
        "id": 276,
        "name": "Adalhat",
        "country_id": 76,
        "is_active": "TRUE",
        "lat": 25.282,
        "long": 82.9563
    },
    {
        "id": 277,
        "name": "Adalpur",
        "country_id": 76,
        "is_active": "TRUE",
        "lat": 26.191,
        "long": 86.0239
    },
    {
        "id": 278,
        "name": "Adamankottai",
        "country_id": 76,
        "is_active": "TRUE",
        "lat": 12.0742,
        "long": 78.1237
    },
    {
        "id": 281,
        "name": "Adampur",
        "country_id": 76,
        "is_active": "TRUE",
        "lat": 31.4322,
        "long": 75.7148
    },
    {
        "id": 287,
        "name": "Addanki",
        "country_id": 76,
        "is_active": "TRUE",
        "lat": 15.8167,
        "long": 79.9833
    },
    {
        "id": 304,
        "name": "Adesar",
        "country_id": 76,
        "is_active": "TRUE",
        "lat": 23.5589,
        "long": 70.9833
    },
    {
        "id": 309,
        "name": "Adigappadi",
        "country_id": 76,
        "is_active": "TRUE",
        "lat": 12.1459,
        "long": 78.0946
    },
    {
        "id": 310,
        "name": "Adigaratti",
        "country_id": 76,
        "is_active": "TRUE",
        "lat": 11.3357,
        "long": 76.6971
    },
    {
        "id": 311,
        "name": "Adigoppula",
        "country_id": 76,
        "is_active": "TRUE",
        "lat": 16.4402,
        "long": 79.6235
    },
    {
        "id": 313,
        "name": "Adilabad",
        "country_id": 76,
        "is_active": "TRUE",
        "lat": 19.6667,
        "long": 78.5333
    },
    {
        "id": 317,
        "name": "Adivala",
        "country_id": 76,
        "is_active": "TRUE",
        "lat": 13.9131,
        "long": 76.6619
    },
    {
        "id": 318,
        "name": "Adiyakkamangalam",
        "country_id": 76,
        "is_active": "TRUE",
        "lat": 10.7626,
        "long": 79.6775
    },
    {
        "id": 334,
        "name": "Adoni",
        "country_id": 76,
        "is_active": "TRUE",
        "lat": 15.6279,
        "long": 77.2749
    },
    {
        "id": 336,
        "name": "Adra",
        "country_id": 76,
        "is_active": "TRUE",
        "lat": 23.5,
        "long": 86.67
    },
    {
        "id": 344,
        "name": "Adukam",
        "country_id": 76,
        "is_active": "TRUE",
        "lat": 9.7954,
        "long": 76.8456
    },
    {
        "id": 346,
        "name": "Aduru",
        "country_id": 76,
        "is_active": "TRUE",
        "lat": 12.5583,
        "long": 75.1357
    },
    {
        "id": 348,
        "name": "Advi Devalpalli",
        "country_id": 76,
        "is_active": "TRUE",
        "lat": 16.6631,
        "long": 79.5139
    },
    {
        "id": 376,
        "name": "Afzala",
        "country_id": 76,
        "is_active": "TRUE",
        "lat": 25.9319,
        "long": 86.2293
    },
    {
        "id": 377,
        "name": "Afzalpur",
        "country_id": 76,
        "is_active": "TRUE",
        "lat": 17.2011,
        "long": 76.3611
    },
    {
        "id": 378,
        "name": "Agadallanka",
        "country_id": 76,
        "is_active": "TRUE",
        "lat": 16.7123,
        "long": 81.2732
    },
    {
        "id": 380,
        "name": "Agadi",
        "country_id": 76,
        "is_active": "TRUE",
        "lat": 14.819,
        "long": 75.469
    },
    {
        "id": 388,
        "name": "Agar",
        "country_id": 76,
        "is_active": "TRUE",
        "lat": 23.7118,
        "long": 76.0157
    },
    {
        "id": 389,
        "name": "Agaram",
        "country_id": 76,
        "is_active": "TRUE",
        "lat": 10.4433,
        "long": 77.9485
    },
    {
        "id": 392,
        "name": "Agarpur",
        "country_id": 76,
        "is_active": "TRUE",
        "lat": 25.1957,
        "long": 87.0423
    },
    {
        "id": 393,
        "name": "Agartala",
        "country_id": 76,
        "is_active": "TRUE",
        "lat": 23.8314,
        "long": 91.2869
    },
    {
        "id": 417,
        "name": "Aginiparru",
        "country_id": 76,
        "is_active": "TRUE",
        "lat": 16.6817,
        "long": 80.7839
    },
    {
        "id": 424,
        "name": "Agiripalle",
        "country_id": 76,
        "is_active": "TRUE",
        "lat": 16.6833,
        "long": 80.65
    },
    {
        "id": 436,
        "name": "Agra",
        "country_id": 76,
        "is_active": "TRUE",
        "lat": 27.18,
        "long": 78.02
    },
    {
        "id": 500,
        "name": "Ahirauliya",
        "country_id": 76,
        "is_active": "TRUE",
        "lat": 26.5091,
        "long": 84.7999
    },
    {
        "id": 501,
        "name": "Ahiro",
        "country_id": 76,
        "is_active": "TRUE",
        "lat": 24.9192,
        "long": 87.1054
    },
    {
        "id": 505,
        "name": "Ahmadabad",
        "country_id": 76,
        "is_active": "TRUE",
        "lat": 25.3019,
        "long": 87.7938
    },
    {
        "id": 507,
        "name": "Ahmadnagar",
        "country_id": 76,
        "is_active": "TRUE",
        "lat": 19.08,
        "long": 74.73
    },
    {
        "id": 508,
        "name": "Ahmadpur",
        "country_id": 76,
        "is_active": "TRUE",
        "lat": 18.7,
        "long": 76.9333
    },
    {
        "id": 509,
        "name": "Ahmadpur",
        "country_id": 76,
        "is_active": "TRUE",
        "lat": 23.8365,
        "long": 87.6912
    },
    {
        "id": 512,
        "name": "Ahmedabad",
        "country_id": 76,
        "is_active": "TRUE",
        "lat": 23.0225,
        "long": 72.5714
    },
    {
        "id": 516,
        "name": "Ahor",
        "country_id": 76,
        "is_active": "TRUE",
        "lat": 25.367,
        "long": 72.783
    },
    {
        "id": 526,
        "name": "Ahwa",
        "country_id": 76,
        "is_active": "TRUE",
        "lat": 20.75,
        "long": 73.6833
    },
    {
        "id": 540,
        "name": "Aikaranad",
        "country_id": 76,
        "is_active": "TRUE",
        "lat": 10.0002,
        "long": 76.455
    },
    {
        "id": 607,
        "name": "Ainapur",
        "country_id": 76,
        "is_active": "TRUE",
        "lat": 16.48,
        "long": 74.78
    },
    {
        "id": 645,
        "name": "Aivanallur",
        "country_id": 76,
        "is_active": "TRUE",
        "lat": 11.2161,
        "long": 79.5392
    },
    {
        "id": 648,
        "name": "Aiyampuzha",
        "country_id": 76,
        "is_active": "TRUE",
        "lat": 10.25,
        "long": 76.4667
    },
    {
        "id": 649,
        "name": "Aiyappan Kovil",
        "country_id": 76,
        "is_active": "TRUE",
        "lat": 9.7158,
        "long": 77.0333
    },
    {
        "id": 653,
        "name": "Aizawl",
        "country_id": 76,
        "is_active": "TRUE",
        "lat": 23.7272,
        "long": 92.7178
    },
    {
        "id": 664,
        "name": "Ajaigarh",
        "country_id": 76,
        "is_active": "TRUE",
        "lat": 24.8988,
        "long": 80.2592
    },
    {
        "id": 665,
        "name": "Ajas",
        "country_id": 76,
        "is_active": "TRUE",
        "lat": 34.3316,
        "long": 74.6801
    },
    {
        "id": 671,
        "name": "Ajjampur",
        "country_id": 76,
        "is_active": "TRUE",
        "lat": 13.7279,
        "long": 76.0068
    },
    {
        "id": 672,
        "name": "Ajjanahalli",
        "country_id": 76,
        "is_active": "TRUE",
        "lat": 12.0376,
        "long": 77.8138
    },
    {
        "id": 673,
        "name": "Ajjipuram",
        "country_id": 76,
        "is_active": "TRUE",
        "lat": 12.0457,
        "long": 77.3532
    },
    {
        "id": 675,
        "name": "Ajmer",
        "country_id": 76,
        "is_active": "TRUE",
        "lat": 26.4499,
        "long": 74.6399
    },
    {
        "id": 676,
        "name": "Ajnala",
        "country_id": 76,
        "is_active": "TRUE",
        "lat": 31.84,
        "long": 74.76
    },
    {
        "id": 677,
        "name": "Ajodhya",
        "country_id": 76,
        "is_active": "TRUE",
        "lat": 26.7992,
        "long": 82.2044
    },
    {
        "id": 681,
        "name": "Akalapura",
        "country_id": 76,
        "is_active": "TRUE",
        "lat": 13.4852,
        "long": 77.4621
    },
    {
        "id": 682,
        "name": "Akalgarh",
        "country_id": 76,
        "is_active": "TRUE",
        "lat": 30.8019,
        "long": 75.8582
    },
    {
        "id": 683,
        "name": "Akambadam",
        "country_id": 76,
        "is_active": "TRUE",
        "lat": 11.1,
        "long": 76.3167
    },
    {
        "id": 684,
        "name": "Akanavaritota",
        "country_id": 76,
        "is_active": "TRUE",
        "lat": 16.4141,
        "long": 81.6367
    },
    {
        "id": 688,
        "name": "Akbarpur",
        "country_id": 76,
        "is_active": "TRUE",
        "lat": 26.4333,
        "long": 82.5403
    },
    {
        "id": 689,
        "name": "Akbarpur",
        "country_id": 76,
        "is_active": "TRUE",
        "lat": 24.6351,
        "long": 83.9642
    },
    {
        "id": 705,
        "name": "Akhnur",
        "country_id": 76,
        "is_active": "TRUE",
        "lat": 32.87,
        "long": 74.73
    },
    {
        "id": 715,
        "name": "Akividu",
        "country_id": 76,
        "is_active": "TRUE",
        "lat": 16.5823,
        "long": 81.3811
    },
    {
        "id": 717,
        "name": "Akkattettar",
        "country_id": 76,
        "is_active": "TRUE",
        "lat": 10.8167,
        "long": 76.65
    },
    {
        "id": 720,
        "name": "Aklera",
        "country_id": 76,
        "is_active": "TRUE",
        "lat": 24.42,
        "long": 76.57
    },
    {
        "id": 722,
        "name": "Aklvidu",
        "country_id": 76,
        "is_active": "TRUE",
        "lat": 16.6,
        "long": 81.3833
    },
    {
        "id": 723,
        "name": "Akola",
        "country_id": 76,
        "is_active": "TRUE",
        "lat": 20.7,
        "long": 77
    },
    {
        "id": 724,
        "name": "Akola",
        "country_id": 76,
        "is_active": "TRUE",
        "lat": 27.0656,
        "long": 77.8808
    },
    {
        "id": 727,
        "name": "Akora",
        "country_id": 76,
        "is_active": "TRUE",
        "lat": 26.4721,
        "long": 78.7989
    },
    {
        "id": 729,
        "name": "Akot",
        "country_id": 76,
        "is_active": "TRUE",
        "lat": 21.1,
        "long": 77.06
    },
    {
        "id": 925,
        "name": "Alagappapuram",
        "country_id": 76,
        "is_active": "TRUE",
        "lat": 8.1468,
        "long": 77.5413
    },
    {
        "id": 926,
        "name": "Alagarai",
        "country_id": 76,
        "is_active": "TRUE",
        "lat": 10.9826,
        "long": 78.3891
    },
    {
        "id": 944,
        "name": "Alamadi",
        "country_id": 76,
        "is_active": "TRUE",
        "lat": 13.1097,
        "long": 80.0972
    },
    {
        "id": 950,
        "name": "Alamnagar",
        "country_id": 76,
        "is_active": "TRUE",
        "lat": 25.561,
        "long": 86.9014
    },
    {
        "id": 957,
        "name": "Alampalaiyam",
        "country_id": 76,
        "is_active": "TRUE",
        "lat": 11.3635,
        "long": 77.7677
    },
    {
        "id": 958,
        "name": "Alampur",
        "country_id": 76,
        "is_active": "TRUE",
        "lat": 15.8793,
        "long": 78.1334
    },
    {
        "id": 959,
        "name": "Alampur",
        "country_id": 76,
        "is_active": "TRUE",
        "lat": 26.0251,
        "long": 78.797
    },
    {
        "id": 960,
        "name": "Alampur",
        "country_id": 76,
        "is_active": "TRUE",
        "lat": 24.8721,
        "long": 83.8829
    },
    {
        "id": 961,
        "name": "Alampur Gonpura",
        "country_id": 76,
        "is_active": "TRUE",
        "lat": 25.5404,
        "long": 85.0511
    },
    {
        "id": 962,
        "name": "Alamuru",
        "country_id": 76,
        "is_active": "TRUE",
        "lat": 16.7833,
        "long": 81.9
    },
    {
        "id": 963,
        "name": "Aland",
        "country_id": 76,
        "is_active": "TRUE",
        "lat": 17.5642,
        "long": 76.5685
    },
    {
        "id": 964,
        "name": "Alandatte",
        "country_id": 76,
        "is_active": "TRUE",
        "lat": 12.191,
        "long": 75.4673
    },
    {
        "id": 966,
        "name": "Alanganallur",
        "country_id": 76,
        "is_active": "TRUE",
        "lat": 10.047,
        "long": 78.0903
    },
    {
        "id": 967,
        "name": "Alangayam",
        "country_id": 76,
        "is_active": "TRUE",
        "lat": 12.6223,
        "long": 78.7521
    },
    {
        "id": 968,
        "name": "Alangudi",
        "country_id": 76,
        "is_active": "TRUE",
        "lat": 10.3604,
        "long": 78.9779
    },
    {
        "id": 969,
        "name": "Alangulam",
        "country_id": 76,
        "is_active": "TRUE",
        "lat": 8.864,
        "long": 77.4994
    },
    {
        "id": 975,
        "name": "Alasandigutta",
        "country_id": 76,
        "is_active": "TRUE",
        "lat": 15.6244,
        "long": 77.2731
    },
    {
        "id": 983,
        "name": "Alattur",
        "country_id": 76,
        "is_active": "TRUE",
        "lat": 10.6481,
        "long": 76.5383
    },
    {
        "id": 985,
        "name": "Alauli",
        "country_id": 76,
        "is_active": "TRUE",
        "lat": 25.644,
        "long": 86.4065
    },
    {
        "id": 989,
        "name": "Alawalpur",
        "country_id": 76,
        "is_active": "TRUE",
        "lat": 31.4316,
        "long": 75.6561
    },
    {
        "id": 990,
        "name": "Alawandi",
        "country_id": 76,
        "is_active": "TRUE",
        "lat": 15.2303,
        "long": 75.9801
    },
    {
        "id": 991,
        "name": "Alayaman",
        "country_id": 76,
        "is_active": "TRUE",
        "lat": 8.8843,
        "long": 76.9653
    },
    {
        "id": 1104,
        "name": "Alengad",
        "country_id": 76,
        "is_active": "TRUE",
        "lat": 10.1,
        "long": 76.3
    },
    {
        "id": 1114,
        "name": "Alewah",
        "country_id": 76,
        "is_active": "TRUE",
        "lat": 29.4767,
        "long": 76.4522
    },
    {
        "id": 1157,
        "name": "Algun",
        "country_id": 76,
        "is_active": "TRUE",
        "lat": 31.2795,
        "long": 74.6517
    },
    {
        "id": 1180,
        "name": "Aliganj",
        "country_id": 76,
        "is_active": "TRUE",
        "lat": 24.9365,
        "long": 85.925
    },
    {
        "id": 1181,
        "name": "Aligarh",
        "country_id": 76,
        "is_active": "TRUE",
        "lat": 27.88,
        "long": 78.08
    },
    {
        "id": 1188,
        "name": "Alipur",
        "country_id": 76,
        "is_active": "TRUE",
        "lat": 18.8621,
        "long": 78.8754
    },
    {
        "id": 1189,
        "name": "Alipur Duar",
        "country_id": 76,
        "is_active": "TRUE",
        "lat": 26.489,
        "long": 89.527
    },
    {
        "id": 1194,
        "name": "Aliyabad",
        "country_id": 76,
        "is_active": "TRUE",
        "lat": 12.6317,
        "long": 79.2164
    },
    {
        "id": 1203,
        "name": "Allagadda",
        "country_id": 76,
        "is_active": "TRUE",
        "lat": 15.1322,
        "long": 78.5138
    },
    {
        "id": 1205,
        "name": "Allahdurg",
        "country_id": 76,
        "is_active": "TRUE",
        "lat": 17.9667,
        "long": 77.9167
    },
    {
        "id": 1206,
        "name": "Allahpur",
        "country_id": 76,
        "is_active": "TRUE",
        "lat": 26.3434,
        "long": 77.8195
    },
    {
        "id": 1217,
        "name": "Alleppey",
        "country_id": 76,
        "is_active": "TRUE",
        "lat": 9.49,
        "long": 76.33
    },
    {
        "id": 1221,
        "name": "Allinagaram",
        "country_id": 76,
        "is_active": "TRUE",
        "lat": 10.0119,
        "long": 77.4786
    },
    {
        "id": 1228,
        "name": "Allur",
        "country_id": 76,
        "is_active": "TRUE",
        "lat": 14.68,
        "long": 80.06
    },
    {
        "id": 1229,
        "name": "Alluru",
        "country_id": 76,
        "is_active": "TRUE",
        "lat": 15.1336,
        "long": 78.4975
    },
    {
        "id": 1243,
        "name": "Almel",
        "country_id": 76,
        "is_active": "TRUE",
        "lat": 16.92,
        "long": 76.24
    },
    {
        "id": 1260,
        "name": "Almora",
        "country_id": 76,
        "is_active": "TRUE",
        "lat": 29.5971,
        "long": 79.6591
    },
    {
        "id": 1265,
        "name": "Alnavar",
        "country_id": 76,
        "is_active": "TRUE",
        "lat": 15.4273,
        "long": 74.7411
    },
    {
        "id": 1291,
        "name": "Alta",
        "country_id": 76,
        "is_active": "TRUE",
        "lat": 17.25,
        "long": 74.57
    },
    {
        "id": 1369,
        "name": "Alukkuli",
        "country_id": 76,
        "is_active": "TRUE",
        "lat": 11.4458,
        "long": 77.3574
    },
    {
        "id": 1372,
        "name": "Alur",
        "country_id": 76,
        "is_active": "TRUE",
        "lat": 15.3942,
        "long": 77.2264
    },
    {
        "id": 1385,
        "name": "Alwa Tirunagari",
        "country_id": 76,
        "is_active": "TRUE",
        "lat": 8.61,
        "long": 77.94
    },
    {
        "id": 1386,
        "name": "Alwal",
        "country_id": 76,
        "is_active": "TRUE",
        "lat": 17.5047,
        "long": 78.5038
    },
    {
        "id": 1387,
        "name": "Alwar",
        "country_id": 76,
        "is_active": "TRUE",
        "lat": 27.5498,
        "long": 76.6355
    },
    {
        "id": 1388,
        "name": "Alwarkurichchi",
        "country_id": 76,
        "is_active": "TRUE",
        "lat": 8.7838,
        "long": 77.3952
    },
    {
        "id": 1389,
        "name": "Alwaye",
        "country_id": 76,
        "is_active": "TRUE",
        "lat": 10.1167,
        "long": 76.35
    },
    {
        "id": 1400,
        "name": "Amaha",
        "country_id": 76,
        "is_active": "TRUE",
        "lat": 26.1284,
        "long": 86.7998
    },
    {
        "id": 1404,
        "name": "Amala",
        "country_id": 76,
        "is_active": "TRUE",
        "lat": 9.859,
        "long": 76.8112
    },
    {
        "id": 1405,
        "name": "Amalapuram",
        "country_id": 76,
        "is_active": "TRUE",
        "lat": 16.5787,
        "long": 82.0061
    },
    {
        "id": 1408,
        "name": "Amalner",
        "country_id": 76,
        "is_active": "TRUE",
        "lat": 21.05,
        "long": 75.05
    },
    {
        "id": 1413,
        "name": "Amangal",
        "country_id": 76,
        "is_active": "TRUE",
        "lat": 16.8499,
        "long": 78.5327
    },
    {
        "id": 1414,
        "name": "Amanganj",
        "country_id": 76,
        "is_active": "TRUE",
        "lat": 24.4266,
        "long": 80.0358
    },
    {
        "id": 1422,
        "name": "Amarapuuram",
        "country_id": 76,
        "is_active": "TRUE",
        "lat": 14.1333,
        "long": 76.9833
    },
    {
        "id": 1423,
        "name": "Amaravati",
        "country_id": 76,
        "is_active": "TRUE",
        "lat": 16.5131,
        "long": 80.5165
    },
    {
        "id": 1424,
        "name": "Amaravati",
        "country_id": 76,
        "is_active": "TRUE",
        "lat": 16.573,
        "long": 80.358
    },
    {
        "id": 1425,
        "name": "Amarchinta",
        "country_id": 76,
        "is_active": "TRUE",
        "lat": 16.374,
        "long": 77.7729
    },
    {
        "id": 1428,
        "name": "Amari",
        "country_id": 76,
        "is_active": "TRUE",
        "lat": 25.7179,
        "long": 86.0839
    },
    {
        "id": 1430,
        "name": "Amarpatan",
        "country_id": 76,
        "is_active": "TRUE",
        "lat": 24.3137,
        "long": 80.977
    },
    {
        "id": 1431,
        "name": "Amarpur",
        "country_id": 76,
        "is_active": "TRUE",
        "lat": 25.0397,
        "long": 86.9025
    },
    {
        "id": 1432,
        "name": "Amarpur",
        "country_id": 76,
        "is_active": "TRUE",
        "lat": 23.53,
        "long": 91.64
    },
    {
        "id": 1433,
        "name": "Amarpura",
        "country_id": 76,
        "is_active": "TRUE",
        "lat": 26.3667,
        "long": 73.9833
    },
    {
        "id": 1434,
        "name": "Amarwa Khurd",
        "country_id": 76,
        "is_active": "TRUE",
        "lat": 26.8333,
        "long": 84.25
    },
    {
        "id": 1435,
        "name": "Amarwara",
        "country_id": 76,
        "is_active": "TRUE",
        "lat": 22.2978,
        "long": 79.1694
    },
    {
        "id": 1448,
        "name": "Amauna",
        "country_id": 76,
        "is_active": "TRUE",
        "lat": 25.0531,
        "long": 84.5169
    },
    {
        "id": 1451,
        "name": "Amayan",
        "country_id": 76,
        "is_active": "TRUE",
        "lat": 26.3205,
        "long": 78.7581
    },
    {
        "id": 1452,
        "name": "Amba Icharua",
        "country_id": 76,
        "is_active": "TRUE",
        "lat": 25.614,
        "long": 86.4258
    },
    {
        "id": 1460,
        "name": "Ambajogai",
        "country_id": 76,
        "is_active": "TRUE",
        "lat": 18.73,
        "long": 76.38
    },
    {
        "id": 1462,
        "name": "Ambala",
        "country_id": 76,
        "is_active": "TRUE",
        "lat": 30.38,
        "long": 76.78
    },
    {
        "id": 1463,
        "name": "Ambala",
        "country_id": 76,
        "is_active": "TRUE",
        "lat": 17.65,
        "long": 79.05
    },
    {
        "id": 1471,
        "name": "Ambalanur",
        "country_id": 76,
        "is_active": "TRUE",
        "lat": 16.59,
        "long": 75.96
    },
    {
        "id": 1479,
        "name": "Ambalavayal",
        "country_id": 76,
        "is_active": "TRUE",
        "lat": 11.619,
        "long": 76.2102
    },
    {
        "id": 1484,
        "name": "Ambara",
        "country_id": 76,
        "is_active": "TRUE",
        "lat": 22.1902,
        "long": 78.6708
    },
    {
        "id": 1493,
        "name": "Ambasamudram",
        "country_id": 76,
        "is_active": "TRUE",
        "lat": 8.7037,
        "long": 77.4527
    },
    {
        "id": 1525,
        "name": "Ambattur",
        "country_id": 76,
        "is_active": "TRUE",
        "lat": 13.1143,
        "long": 80.1548
    },
    {
        "id": 1526,
        "name": "Ambatturai",
        "country_id": 76,
        "is_active": "TRUE",
        "lat": 10.2603,
        "long": 77.9303
    },
    {
        "id": 1532,
        "name": "Ambhua",
        "country_id": 76,
        "is_active": "TRUE",
        "lat": 24.5568,
        "long": 87.8651
    },
    {
        "id": 1533,
        "name": "Ambikapur",
        "country_id": 76,
        "is_active": "TRUE",
        "lat": 23.12,
        "long": 83.2
    },
    {
        "id": 1660,
        "name": "Amgachia",
        "country_id": 76,
        "is_active": "TRUE",
        "lat": 22.4156,
        "long": 88.3051
    },
    {
        "id": 1661,
        "name": "Amha",
        "country_id": 76,
        "is_active": "TRUE",
        "lat": 26.0518,
        "long": 86.6906
    },
    {
        "id": 1668,
        "name": "Amiawar",
        "country_id": 76,
        "is_active": "TRUE",
        "lat": 25.0405,
        "long": 84.3096
    },
    {
        "id": 1671,
        "name": "Amingaon",
        "country_id": 76,
        "is_active": "TRUE",
        "lat": 26.23,
        "long": 91.67
    },
    {
        "id": 1672,
        "name": "Amingarh",
        "country_id": 76,
        "is_active": "TRUE",
        "lat": 16.0572,
        "long": 75.9489
    },
    {
        "id": 1673,
        "name": "Aminpur",
        "country_id": 76,
        "is_active": "TRUE",
        "lat": 17.5241,
        "long": 78.3242
    },
    {
        "id": 1680,
        "name": "Amjhar",
        "country_id": 76,
        "is_active": "TRUE",
        "lat": 25.0641,
        "long": 84.5591
    },
    {
        "id": 1681,
        "name": "Amjhera",
        "country_id": 76,
        "is_active": "TRUE",
        "lat": 22.5578,
        "long": 75.1185
    },
    {
        "id": 1682,
        "name": "Amla",
        "country_id": 76,
        "is_active": "TRUE",
        "lat": 21.9248,
        "long": 78.1279
    },
    {
        "id": 1685,
        "name": "Ammanabrolu",
        "country_id": 76,
        "is_active": "TRUE",
        "lat": 15.5802,
        "long": 80.1488
    },
    {
        "id": 1687,
        "name": "Ammapettai",
        "country_id": 76,
        "is_active": "TRUE",
        "lat": 10.7948,
        "long": 79.3199
    },
    {
        "id": 1688,
        "name": "Ammapettai",
        "country_id": 76,
        "is_active": "TRUE",
        "lat": 11.6197,
        "long": 77.7426
    },
    {
        "id": 1689,
        "name": "Ammavarikuppam",
        "country_id": 76,
        "is_active": "TRUE",
        "lat": 13.1784,
        "long": 79.4169
    },
    {
        "id": 1692,
        "name": "Ammur",
        "country_id": 76,
        "is_active": "TRUE",
        "lat": 12.975,
        "long": 79.3628
    },
    {
        "id": 1695,
        "name": "Amodei",
        "country_id": 76,
        "is_active": "TRUE",
        "lat": 26.8975,
        "long": 84.8182
    },
    {
        "id": 1739,
        "name": "Amrabad",
        "country_id": 76,
        "is_active": "TRUE",
        "lat": 16.3833,
        "long": 78.8333
    },
    {
        "id": 1740,
        "name": "Amravati",
        "country_id": 76,
        "is_active": "TRUE",
        "lat": 20.9258,
        "long": 77.7647
    },
    {
        "id": 1741,
        "name": "Amreli",
        "country_id": 76,
        "is_active": "TRUE",
        "lat": 21.6006,
        "long": 71.2164
    },
    {
        "id": 1744,
        "name": "Amritsar",
        "country_id": 76,
        "is_active": "TRUE",
        "lat": 31.64,
        "long": 74.86
    },
    {
        "id": 1745,
        "name": "Amroha",
        "country_id": 76,
        "is_active": "TRUE",
        "lat": 28.9044,
        "long": 78.4675
    },
    {
        "id": 1746,
        "name": "Amsin",
        "country_id": 76,
        "is_active": "TRUE",
        "lat": 26.5733,
        "long": 82.4357
    },
    {
        "id": 1751,
        "name": "Amta",
        "country_id": 76,
        "is_active": "TRUE",
        "lat": 22.5834,
        "long": 88.0104
    },
    {
        "id": 1752,
        "name": "Amtala",
        "country_id": 76,
        "is_active": "TRUE",
        "lat": 26.1,
        "long": 91.39
    },
    {
        "id": 1753,
        "name": "Amtala",
        "country_id": 76,
        "is_active": "TRUE",
        "lat": 22.3669,
        "long": 88.2777
    },
    {
        "id": 1757,
        "name": "Amudalapalle",
        "country_id": 76,
        "is_active": "TRUE",
        "lat": 15.9301,
        "long": 80.6899
    },
    {
        "id": 1758,
        "name": "Amudalavalasa",
        "country_id": 76,
        "is_active": "TRUE",
        "lat": 18.4167,
        "long": 83.9
    },
    {
        "id": 1767,
        "name": "Amwa Majhar",
        "country_id": 76,
        "is_active": "TRUE",
        "lat": 26.7362,
        "long": 84.5818
    },
    {
        "id": 1794,
        "name": "Anaikal",
        "country_id": 76,
        "is_active": "TRUE",
        "lat": 9.6003,
        "long": 76.6846
    },
    {
        "id": 1795,
        "name": "Anaiyur",
        "country_id": 76,
        "is_active": "TRUE",
        "lat": 9.9615,
        "long": 78.1118
    },
    {
        "id": 1798,
        "name": "Anakapalle",
        "country_id": 76,
        "is_active": "TRUE",
        "lat": 17.6913,
        "long": 83.0039
    },
    {
        "id": 1799,
        "name": "Anakaputtur",
        "country_id": 76,
        "is_active": "TRUE",
        "lat": 12.9823,
        "long": 80.1282
    },
    {
        "id": 1811,
        "name": "Anamalais",
        "country_id": 76,
        "is_active": "TRUE",
        "lat": 10.583,
        "long": 76.9344
    },
    {
        "id": 1816,
        "name": "Anand",
        "country_id": 76,
        "is_active": "TRUE",
        "lat": 22.556,
        "long": 72.951
    },
    {
        "id": 1817,
        "name": "Anandapuram",
        "country_id": 76,
        "is_active": "TRUE",
        "lat": 11.09,
        "long": 76.9422
    },
    {
        "id": 1818,
        "name": "Anandnagar",
        "country_id": 76,
        "is_active": "TRUE",
        "lat": 27.1,
        "long": 83.2833
    },
    {
        "id": 1819,
        "name": "Anandpur",
        "country_id": 76,
        "is_active": "TRUE",
        "lat": 21.2141,
        "long": 86.1249
    },
    {
        "id": 1820,
        "name": "Anandpur",
        "country_id": 76,
        "is_active": "TRUE",
        "lat": 31.2393,
        "long": 76.5025
    },
    {
        "id": 1821,
        "name": "Anandpur",
        "country_id": 76,
        "is_active": "TRUE",
        "lat": 25.6192,
        "long": 84.8673
    },
    {
        "id": 1824,
        "name": "Ananipalle",
        "country_id": 76,
        "is_active": "TRUE",
        "lat": 13.4902,
        "long": 79.2895
    },
    {
        "id": 1825,
        "name": "Anantapalle",
        "country_id": 76,
        "is_active": "TRUE",
        "lat": 16.9767,
        "long": 81.4442
    },
    {
        "id": 1826,
        "name": "Anantapur",
        "country_id": 76,
        "is_active": "TRUE",
        "lat": 14.68,
        "long": 77.599
    },
    {
        "id": 1827,
        "name": "Anantarazupeta",
        "country_id": 76,
        "is_active": "TRUE",
        "lat": 14.0014,
        "long": 79.3319
    },
    {
        "id": 1828,
        "name": "Anantasagaram",
        "country_id": 76,
        "is_active": "TRUE",
        "lat": 14.5833,
        "long": 79.4167
    },
    {
        "id": 1829,
        "name": "Anantavur",
        "country_id": 76,
        "is_active": "TRUE",
        "lat": 10.8925,
        "long": 75.9983
    },
    {
        "id": 1830,
        "name": "Anantpur",
        "country_id": 76,
        "is_active": "TRUE",
        "lat": 16.889,
        "long": 75.0146
    },
    {
        "id": 1841,
        "name": "Anavatti",
        "country_id": 76,
        "is_active": "TRUE",
        "lat": 14.5645,
        "long": 75.1523
    },
    {
        "id": 1855,
        "name": "Andal",
        "country_id": 76,
        "is_active": "TRUE",
        "lat": 23.6,
        "long": 87.2
    },
    {
        "id": 1861,
        "name": "Andanappettai",
        "country_id": 76,
        "is_active": "TRUE",
        "lat": 10.7498,
        "long": 79.8226
    },
    {
        "id": 1880,
        "name": "Andhana",
        "country_id": 76,
        "is_active": "TRUE",
        "lat": 25.2574,
        "long": 85.4548
    },
    {
        "id": 1881,
        "name": "Andhra Tharhi",
        "country_id": 76,
        "is_active": "TRUE",
        "lat": 26.3771,
        "long": 86.3341
    },
    {
        "id": 1890,
        "name": "Andipalaiyam",
        "country_id": 76,
        "is_active": "TRUE",
        "lat": 11.092,
        "long": 77.315
    },
    {
        "id": 1891,
        "name": "Andippatti",
        "country_id": 76,
        "is_active": "TRUE",
        "lat": 9.998,
        "long": 77.621
    },
    {
        "id": 1894,
        "name": "Andiyappanur",
        "country_id": 76,
        "is_active": "TRUE",
        "lat": 12.5342,
        "long": 78.7024
    },
    {
        "id": 1951,
        "name": "Andurkonam",
        "country_id": 76,
        "is_active": "TRUE",
        "lat": 8.5969,
        "long": 76.8664
    },
    {
        "id": 1953,
        "name": "Anekal",
        "country_id": 76,
        "is_active": "TRUE",
        "lat": 12.7105,
        "long": 77.6967
    },
    {
        "id": 1959,
        "name": "Angadikkal Tekkekara",
        "country_id": 76,
        "is_active": "TRUE",
        "lat": 9.2063,
        "long": 76.7835
    },
    {
        "id": 1960,
        "name": "Angalakuduru Malepalle",
        "country_id": 76,
        "is_active": "TRUE",
        "lat": 16.2392,
        "long": 80.6117
    },
    {
        "id": 1961,
        "name": "Angalakurichchi",
        "country_id": 76,
        "is_active": "TRUE",
        "lat": 10.5282,
        "long": 76.9962
    },
    {
        "id": 1962,
        "name": "Angallu",
        "country_id": 76,
        "is_active": "TRUE",
        "lat": 13.6287,
        "long": 78.4857
    },
    {
        "id": 1963,
        "name": "Angamali",
        "country_id": 76,
        "is_active": "TRUE",
        "lat": 10.196,
        "long": 76.386
    },
    {
        "id": 1976,
        "name": "Anghad",
        "country_id": 76,
        "is_active": "TRUE",
        "lat": 22.3913,
        "long": 72.9946
    },
    {
        "id": 1978,
        "name": "Angichettippalaiyam",
        "country_id": 76,
        "is_active": "TRUE",
        "lat": 11.7742,
        "long": 79.5255
    },
    {
        "id": 1994,
        "name": "Angul",
        "country_id": 76,
        "is_active": "TRUE",
        "lat": 20.8381,
        "long": 85.0956
    },
    {
        "id": 1997,
        "name": "Angwali",
        "country_id": 76,
        "is_active": "TRUE",
        "lat": 23.7317,
        "long": 85.9858
    },
    {
        "id": 2007,
        "name": "Anjad",
        "country_id": 76,
        "is_active": "TRUE",
        "lat": 22.0417,
        "long": 75.0552
    },
    {
        "id": 2013,
        "name": "Anjangaon",
        "country_id": 76,
        "is_active": "TRUE",
        "lat": 21.15,
        "long": 77.28
    },
    {
        "id": 2015,
        "name": "Anjarkandi",
        "country_id": 76,
        "is_active": "TRUE",
        "lat": 11.8822,
        "long": 75.5097
    },
    {
        "id": 2016,
        "name": "Anjehalli",
        "country_id": 76,
        "is_active": "TRUE",
        "lat": 12.1395,
        "long": 77.9808
    },
    {
        "id": 2024,
        "name": "Anjukulippatti",
        "country_id": 76,
        "is_active": "TRUE",
        "lat": 10.2444,
        "long": 78.0794
    },
    {
        "id": 2025,
        "name": "Anjuna",
        "country_id": 76,
        "is_active": "TRUE",
        "lat": 15.5833,
        "long": 73.7333
    },
    {
        "id": 2026,
        "name": "Anjur",
        "country_id": 76,
        "is_active": "TRUE",
        "lat": 10.5992,
        "long": 76.1553
    },
    {
        "id": 2032,
        "name": "Ankalgi",
        "country_id": 76,
        "is_active": "TRUE",
        "lat": 16.0333,
        "long": 74.7
    },
    {
        "id": 2061,
        "name": "Ankireddikuntapalem",
        "country_id": 76,
        "is_active": "TRUE",
        "lat": 15.9154,
        "long": 80.2108
    },
    {
        "id": 2066,
        "name": "Ankli",
        "country_id": 76,
        "is_active": "TRUE",
        "lat": 16.42,
        "long": 74.58
    },
    {
        "id": 2068,
        "name": "Ankola",
        "country_id": 76,
        "is_active": "TRUE",
        "lat": 14.6605,
        "long": 74.3047
    },
    {
        "id": 2077,
        "name": "Annakattumula",
        "country_id": 76,
        "is_active": "TRUE",
        "lat": 9.8575,
        "long": 76.4009
    },
    {
        "id": 2078,
        "name": "Annakunnu",
        "country_id": 76,
        "is_active": "TRUE",
        "lat": 11.7463,
        "long": 76.0415
    },
    {
        "id": 2079,
        "name": "Annamalainagar",
        "country_id": 76,
        "is_active": "TRUE",
        "lat": 11.4,
        "long": 79.7333
    },
    {
        "id": 2085,
        "name": "Annaram",
        "country_id": 76,
        "is_active": "TRUE",
        "lat": 16.784,
        "long": 79.302
    },
    {
        "id": 2086,
        "name": "Anndevarapeta",
        "country_id": 76,
        "is_active": "TRUE",
        "lat": 17.0937,
        "long": 81.5799
    },
    {
        "id": 2090,
        "name": "Annigeri",
        "country_id": 76,
        "is_active": "TRUE",
        "lat": 15.4251,
        "long": 75.4335
    },
    {
        "id": 2094,
        "name": "Annur",
        "country_id": 76,
        "is_active": "TRUE",
        "lat": 11.2325,
        "long": 77.1069
    },
    {
        "id": 2163,
        "name": "Antardipa",
        "country_id": 76,
        "is_active": "TRUE",
        "lat": 24.6442,
        "long": 87.9213
    },
    {
        "id": 2165,
        "name": "Antargangi",
        "country_id": 76,
        "is_active": "TRUE",
        "lat": 17.17,
        "long": 75.96
    },
    {
        "id": 2167,
        "name": "Antarvedi",
        "country_id": 76,
        "is_active": "TRUE",
        "lat": 16.3333,
        "long": 81.7333
    },
    {
        "id": 2168,
        "name": "Antarvedipalem",
        "country_id": 76,
        "is_active": "TRUE",
        "lat": 16.3319,
        "long": 81.732
    },
    {
        "id": 2204,
        "name": "Antri",
        "country_id": 76,
        "is_active": "TRUE",
        "lat": 26.0581,
        "long": 78.21
    },
    {
        "id": 2237,
        "name": "Antur",
        "country_id": 76,
        "is_active": "TRUE",
        "lat": 11.987,
        "long": 75.376
    },
    {
        "id": 2239,
        "name": "Anuppampattu",
        "country_id": 76,
        "is_active": "TRUE",
        "lat": 13.3018,
        "long": 80.2258
    },
    {
        "id": 2240,
        "name": "Anuppur",
        "country_id": 76,
        "is_active": "TRUE",
        "lat": 23.1034,
        "long": 81.6908
    },
    {
        "id": 2241,
        "name": "Anupshahr",
        "country_id": 76,
        "is_active": "TRUE",
        "lat": 28.37,
        "long": 78.27
    },
    {
        "id": 2288,
        "name": "Aphaur",
        "country_id": 76,
        "is_active": "TRUE",
        "lat": 25.8828,
        "long": 84.7595
    },
    {
        "id": 2305,
        "name": "Apparaopeta",
        "country_id": 76,
        "is_active": "TRUE",
        "lat": 16.8987,
        "long": 81.5684
    },
    {
        "id": 2314,
        "name": "Appukkudal",
        "country_id": 76,
        "is_active": "TRUE",
        "lat": 11.4684,
        "long": 77.5766
    },
    {
        "id": 2361,
        "name": "Arachchalur",
        "country_id": 76,
        "is_active": "TRUE",
        "lat": 11.1627,
        "long": 77.7007
    },
    {
        "id": 2384,
        "name": "Arajpur",
        "country_id": 76,
        "is_active": "TRUE",
        "lat": 25.5197,
        "long": 87.0808
    },
    {
        "id": 2388,
        "name": "Arakere",
        "country_id": 76,
        "is_active": "TRUE",
        "lat": 12.4133,
        "long": 76.8168
    },
    {
        "id": 2389,
        "name": "Arakkal",
        "country_id": 76,
        "is_active": "TRUE",
        "lat": 8.948,
        "long": 76.8631
    },
    {
        "id": 2390,
        "name": "Arakkapadi",
        "country_id": 76,
        "is_active": "TRUE",
        "lat": 10.0599,
        "long": 76.4592
    },
    {
        "id": 2395,
        "name": "Aralam",
        "country_id": 76,
        "is_active": "TRUE",
        "lat": 11.9992,
        "long": 75.764
    },
    {
        "id": 2397,
        "name": "Aramangalam",
        "country_id": 76,
        "is_active": "TRUE",
        "lat": 11.5843,
        "long": 76.0001
    },
    {
        "id": 2399,
        "name": "Arambagh",
        "country_id": 76,
        "is_active": "TRUE",
        "lat": 22.88,
        "long": 87.78
    },
    {
        "id": 2400,
        "name": "Arambakkam",
        "country_id": 76,
        "is_active": "TRUE",
        "lat": 13.5258,
        "long": 80.071
    },
    {
        "id": 2403,
        "name": "Aranda",
        "country_id": 76,
        "is_active": "TRUE",
        "lat": 26.085,
        "long": 84.3601
    },
    {
        "id": 2408,
        "name": "Arani",
        "country_id": 76,
        "is_active": "TRUE",
        "lat": 13.3346,
        "long": 80.0848
    },
    {
        "id": 2412,
        "name": "Arantangi",
        "country_id": 76,
        "is_active": "TRUE",
        "lat": 10.1686,
        "long": 78.992
    },
    {
        "id": 2413,
        "name": "Aranya Kalan",
        "country_id": 76,
        "is_active": "TRUE",
        "lat": 23.2448,
        "long": 76.7435
    },
    {
        "id": 2433,
        "name": "Araria",
        "country_id": 76,
        "is_active": "TRUE",
        "lat": 26.15,
        "long": 87.52
    },
    {
        "id": 2440,
        "name": "Arasur",
        "country_id": 76,
        "is_active": "TRUE",
        "lat": 11.0866,
        "long": 77.1146
    },
    {
        "id": 2451,
        "name": "Aravakkurichchi",
        "country_id": 76,
        "is_active": "TRUE",
        "lat": 10.776,
        "long": 77.9076
    },
    {
        "id": 2453,
        "name": "Aravankara",
        "country_id": 76,
        "is_active": "TRUE",
        "lat": 11.0745,
        "long": 75.9369
    },
    {
        "id": 2454,
        "name": "Aravelli",
        "country_id": 76,
        "is_active": "TRUE",
        "lat": 18.719,
        "long": 79.0262
    },
    {
        "id": 2486,
        "name": "Arcot",
        "country_id": 76,
        "is_active": "TRUE",
        "lat": 12.9047,
        "long": 79.3238
    },
    {
        "id": 2490,
        "name": "Arda",
        "country_id": 76,
        "is_active": "TRUE",
        "lat": 32.3087,
        "long": 76.5772
    },
    {
        "id": 2524,
        "name": "Areraj",
        "country_id": 76,
        "is_active": "TRUE",
        "lat": 26.5527,
        "long": 84.6726
    },
    {
        "id": 2561,
        "name": "Arimalam",
        "country_id": 76,
        "is_active": "TRUE",
        "lat": 10.255,
        "long": 78.884
    },
    {
        "id": 2570,
        "name": "Ariyalur",
        "country_id": 76,
        "is_active": "TRUE",
        "lat": 11.1372,
        "long": 79.0778
    },
    {
        "id": 2580,
        "name": "Arkonam",
        "country_id": 76,
        "is_active": "TRUE",
        "lat": 13.0778,
        "long": 79.6667
    },
    {
        "id": 2593,
        "name": "Arma",
        "country_id": 76,
        "is_active": "TRUE",
        "lat": 25.1966,
        "long": 86.2468
    },
    {
        "id": 2610,
        "name": "Armur",
        "country_id": 76,
        "is_active": "TRUE",
        "lat": 18.79,
        "long": 78.29
    },
    {
        "id": 2616,
        "name": "Arni",
        "country_id": 76,
        "is_active": "TRUE",
        "lat": 12.6677,
        "long": 79.2853
    },
    {
        "id": 2617,
        "name": "Arni ka Khera",
        "country_id": 76,
        "is_active": "TRUE",
        "lat": 24.9,
        "long": 74.33
    },
    {
        "id": 2619,
        "name": "Arniya",
        "country_id": 76,
        "is_active": "TRUE",
        "lat": 25.715,
        "long": 85.5448
    },
    {
        "id": 2627,
        "name": "Aroali",
        "country_id": 76,
        "is_active": "TRUE",
        "lat": 24.043,
        "long": 87.9443
    },
    {
        "id": 2629,
        "name": "Arohi",
        "country_id": 76,
        "is_active": "TRUE",
        "lat": 31.8419,
        "long": 76.8645
    },
    {
        "id": 2630,
        "name": "Aron",
        "country_id": 76,
        "is_active": "TRUE",
        "lat": 24.3811,
        "long": 77.4174
    },
    {
        "id": 2640,
        "name": "Arrah",
        "country_id": 76,
        "is_active": "TRUE",
        "lat": 25.5514,
        "long": 84.6603
    },
    {
        "id": 2644,
        "name": "Arrapalli",
        "country_id": 76,
        "is_active": "TRUE",
        "lat": 18.0718,
        "long": 79.7386
    },
    {
        "id": 2665,
        "name": "Arsali",
        "country_id": 76,
        "is_active": "TRUE",
        "lat": 24.3754,
        "long": 83.5903
    },
    {
        "id": 2668,
        "name": "Arsikere",
        "country_id": 76,
        "is_active": "TRUE",
        "lat": 13.3139,
        "long": 76.2369
    },
    {
        "id": 2693,
        "name": "Arttuvattala",
        "country_id": 76,
        "is_active": "TRUE",
        "lat": 9.5167,
        "long": 76.3167
    },
    {
        "id": 2699,
        "name": "Arugollu",
        "country_id": 76,
        "is_active": "TRUE",
        "lat": 16.8253,
        "long": 81.5775
    },
    {
        "id": 2701,
        "name": "Arukutti",
        "country_id": 76,
        "is_active": "TRUE",
        "lat": 9.8309,
        "long": 76.427
    },
    {
        "id": 2702,
        "name": "Arumbakkam",
        "country_id": 76,
        "is_active": "TRUE",
        "lat": 13.5427,
        "long": 80.069
    },
    {
        "id": 2703,
        "name": "Arumbavur",
        "country_id": 76,
        "is_active": "TRUE",
        "lat": 11.381,
        "long": 78.7296
    },
    {
        "id": 2704,
        "name": "Arumuganeri",
        "country_id": 76,
        "is_active": "TRUE",
        "lat": 8.5717,
        "long": 78.0922
    },
    {
        "id": 2705,
        "name": "Aruppukkottai",
        "country_id": 76,
        "is_active": "TRUE",
        "lat": 9.5139,
        "long": 78.1002
    },
    {
        "id": 2707,
        "name": "Arutla",
        "country_id": 76,
        "is_active": "TRUE",
        "lat": 17.1346,
        "long": 78.7574
    },
    {
        "id": 2708,
        "name": "Aruvapalam",
        "country_id": 76,
        "is_active": "TRUE",
        "lat": 9.1833,
        "long": 76.85
    },
    {
        "id": 2709,
        "name": "Aruvikkara",
        "country_id": 76,
        "is_active": "TRUE",
        "lat": 8.3331,
        "long": 77.2788
    },
    {
        "id": 2717,
        "name": "Arwal",
        "country_id": 76,
        "is_active": "TRUE",
        "lat": 25.2442,
        "long": 84.6631
    },
    {
        "id": 2752,
        "name": "Asafabad",
        "country_id": 76,
        "is_active": "TRUE",
        "lat": 19.365,
        "long": 79.274
    },
    {
        "id": 2762,
        "name": "Asahni",
        "country_id": 76,
        "is_active": "TRUE",
        "lat": 26.0079,
        "long": 84.4799
    },
    {
        "id": 2766,
        "name": "Asakapalle",
        "country_id": 76,
        "is_active": "TRUE",
        "lat": 17.7364,
        "long": 83.3
    },
    {
        "id": 2773,
        "name": "Asan",
        "country_id": 76,
        "is_active": "TRUE",
        "lat": 25.73,
        "long": 74.33
    },
    {
        "id": 2775,
        "name": "Asansol",
        "country_id": 76,
        "is_active": "TRUE",
        "lat": 23.68,
        "long": 86.99
    },
    {
        "id": 2776,
        "name": "Asara",
        "country_id": 76,
        "is_active": "TRUE",
        "lat": 29.2494,
        "long": 77.2915
    },
    {
        "id": 2778,
        "name": "Asarganj",
        "country_id": 76,
        "is_active": "TRUE",
        "lat": 25.15,
        "long": 86.68
    },
    {
        "id": 2779,
        "name": "Asarhi",
        "country_id": 76,
        "is_active": "TRUE",
        "lat": 25.2892,
        "long": 85.2189
    },
    {
        "id": 2838,
        "name": "Ashoknagar",
        "country_id": 76,
        "is_active": "TRUE",
        "lat": 24.58,
        "long": 77.73
    },
    {
        "id": 2840,
        "name": "Ashta",
        "country_id": 76,
        "is_active": "TRUE",
        "lat": 23.0175,
        "long": 76.7221
    },
    {
        "id": 2851,
        "name": "Ashwaraopeta",
        "country_id": 76,
        "is_active": "TRUE",
        "lat": 17.25,
        "long": 81.1333
    },
    {
        "id": 2876,
        "name": "Assamannur",
        "country_id": 76,
        "is_active": "TRUE",
        "lat": 10.1129,
        "long": 76.5517
    },
    {
        "id": 2893,
        "name": "Asthal Bohar",
        "country_id": 76,
        "is_active": "TRUE",
        "lat": 28.873,
        "long": 76.642
    },
    {
        "id": 2894,
        "name": "Asthanwan",
        "country_id": 76,
        "is_active": "TRUE",
        "lat": 25.2215,
        "long": 85.6262
    },
    {
        "id": 2907,
        "name": "Asudapuram",
        "country_id": 76,
        "is_active": "TRUE",
        "lat": 15.878,
        "long": 78.132
    },
    {
        "id": 2913,
        "name": "Aswapuram",
        "country_id": 76,
        "is_active": "TRUE",
        "lat": 17.8348,
        "long": 80.8236
    },
    {
        "id": 2934,
        "name": "Atari",
        "country_id": 76,
        "is_active": "TRUE",
        "lat": 31.6008,
        "long": 74.6056
    },
    {
        "id": 2935,
        "name": "Atarra",
        "country_id": 76,
        "is_active": "TRUE",
        "lat": 25.28,
        "long": 80.57
    },
    {
        "id": 2942,
        "name": "Atchampeta",
        "country_id": 76,
        "is_active": "TRUE",
        "lat": 15.5412,
        "long": 78.9503
    },
    {
        "id": 2951,
        "name": "Athar",
        "country_id": 76,
        "is_active": "TRUE",
        "lat": 26.0392,
        "long": 86.059
    },
    {
        "id": 2953,
        "name": "Atharga",
        "country_id": 76,
        "is_active": "TRUE",
        "lat": 16.9875,
        "long": 75.8863
    },
    {
        "id": 2965,
        "name": "Athiringal",
        "country_id": 76,
        "is_active": "TRUE",
        "lat": 9.0667,
        "long": 76.5
    },
    {
        "id": 2967,
        "name": "Athni",
        "country_id": 76,
        "is_active": "TRUE",
        "lat": 16.73,
        "long": 75.07
    },
    {
        "id": 2980,
        "name": "Atlapadu",
        "country_id": 76,
        "is_active": "TRUE",
        "lat": 16.8877,
        "long": 81.6772
    },
    {
        "id": 2985,
        "name": "Atmakur",
        "country_id": 76,
        "is_active": "TRUE",
        "lat": 15.8779,
        "long": 78.5884
    },
    {
        "id": 2986,
        "name": "Atmakur",
        "country_id": 76,
        "is_active": "TRUE",
        "lat": 14.6167,
        "long": 79.6167
    },
    {
        "id": 2987,
        "name": "Atmakur",
        "country_id": 76,
        "is_active": "TRUE",
        "lat": 16.3364,
        "long": 77.8056
    },
    {
        "id": 2988,
        "name": "Atmakur",
        "country_id": 76,
        "is_active": "TRUE",
        "lat": 18.0712,
        "long": 79.736
    },
    {
        "id": 2989,
        "name": "Atmakuru",
        "country_id": 76,
        "is_active": "TRUE",
        "lat": 14.6452,
        "long": 77.3554
    },
    {
        "id": 2990,
        "name": "Atner",
        "country_id": 76,
        "is_active": "TRUE",
        "lat": 21.6238,
        "long": 77.9152
    },
    {
        "id": 2999,
        "name": "Atru",
        "country_id": 76,
        "is_active": "TRUE",
        "lat": 24.81,
        "long": 76.63
    },
    {
        "id": 3001,
        "name": "Attanur",
        "country_id": 76,
        "is_active": "TRUE",
        "lat": 11.5006,
        "long": 78.1356
    },
    {
        "id": 3002,
        "name": "Attappampatti",
        "country_id": 76,
        "is_active": "TRUE",
        "lat": 11.482,
        "long": 78.0248
    },
    {
        "id": 3006,
        "name": "Attibele",
        "country_id": 76,
        "is_active": "TRUE",
        "lat": 12.7781,
        "long": 77.7726
    },
    {
        "id": 3008,
        "name": "Attili",
        "country_id": 76,
        "is_active": "TRUE",
        "lat": 16.7,
        "long": 81.6
    },
    {
        "id": 3009,
        "name": "Attimarappatti",
        "country_id": 76,
        "is_active": "TRUE",
        "lat": 8.7297,
        "long": 78.1169
    },
    {
        "id": 3010,
        "name": "Attingal",
        "country_id": 76,
        "is_active": "TRUE",
        "lat": 8.68,
        "long": 76.83
    },
    {
        "id": 3011,
        "name": "Attippattu",
        "country_id": 76,
        "is_active": "TRUE",
        "lat": 13.2633,
        "long": 80.2911
    },
    {
        "id": 3016,
        "name": "Attur",
        "country_id": 76,
        "is_active": "TRUE",
        "lat": 8.3224,
        "long": 77.2558
    },
    {
        "id": 3017,
        "name": "Atturkuppam",
        "country_id": 76,
        "is_active": "TRUE",
        "lat": 12.6,
        "long": 78.5423
    },
    {
        "id": 3060,
        "name": "Auhar Sheikh",
        "country_id": 76,
        "is_active": "TRUE",
        "lat": 26.7216,
        "long": 84.5993
    },
    {
        "id": 3063,
        "name": "Aul",
        "country_id": 76,
        "is_active": "TRUE",
        "lat": 20.67,
        "long": 86.64
    },
    {
        "id": 3069,
        "name": "Aurad",
        "country_id": 76,
        "is_active": "TRUE",
        "lat": 18.254,
        "long": 77.4176
    },
    {
        "id": 3070,
        "name": "Aurad Shahjahani",
        "country_id": 76,
        "is_active": "TRUE",
        "lat": 18.0958,
        "long": 76.8881
    },
    {
        "id": 3071,
        "name": "Aurahi",
        "country_id": 76,
        "is_active": "TRUE",
        "lat": 26.1895,
        "long": 87.3372
    },
    {
        "id": 3072,
        "name": "Aurahi",
        "country_id": 76,
        "is_active": "TRUE",
        "lat": 25.5709,
        "long": 86.9668
    },
    {
        "id": 3073,
        "name": "Aurahi",
        "country_id": 76,
        "is_active": "TRUE",
        "lat": 26.0355,
        "long": 86.7467
    },
    {
        "id": 3074,
        "name": "Aurahi",
        "country_id": 76,
        "is_active": "TRUE",
        "lat": 25.8263,
        "long": 87.1365
    },
    {
        "id": 3075,
        "name": "Aurangabad",
        "country_id": 76,
        "is_active": "TRUE",
        "lat": 19.88,
        "long": 75.32
    },
    {
        "id": 3076,
        "name": "Aurangabad",
        "country_id": 76,
        "is_active": "TRUE",
        "lat": 24.7,
        "long": 84.35
    },
    {
        "id": 3077,
        "name": "Aurangabad",
        "country_id": 76,
        "is_active": "TRUE",
        "lat": 27.894,
        "long": 77.369
    },
    {
        "id": 3080,
        "name": "Auria",
        "country_id": 76,
        "is_active": "TRUE",
        "lat": 24.8563,
        "long": 87.0112
    },
    {
        "id": 3100,
        "name": "Auta",
        "country_id": 76,
        "is_active": "TRUE",
        "lat": 25.3882,
        "long": 85.9558
    },
    {
        "id": 3107,
        "name": "Avadattur",
        "country_id": 76,
        "is_active": "TRUE",
        "lat": 11.7014,
        "long": 77.8638
    },
    {
        "id": 3108,
        "name": "Avadi",
        "country_id": 76,
        "is_active": "TRUE",
        "lat": 13.1147,
        "long": 80.1098
    },
    {
        "id": 3109,
        "name": "Avalepalli",
        "country_id": 76,
        "is_active": "TRUE",
        "lat": 12.7714,
        "long": 77.8594
    },
    {
        "id": 3110,
        "name": "Avalpundurai",
        "country_id": 76,
        "is_active": "TRUE",
        "lat": 11.231,
        "long": 77.7182
    },
    {
        "id": 3111,
        "name": "Avalurpet",
        "country_id": 76,
        "is_active": "TRUE",
        "lat": 12.38,
        "long": 79.3465
    },
    {
        "id": 3112,
        "name": "Avanashipalaiyam",
        "country_id": 76,
        "is_active": "TRUE",
        "lat": 10.9696,
        "long": 77.4352
    },
    {
        "id": 3114,
        "name": "Avanigadda",
        "country_id": 76,
        "is_active": "TRUE",
        "lat": 16.0197,
        "long": 80.92
    },
    {
        "id": 3115,
        "name": "Avaniyapuram",
        "country_id": 76,
        "is_active": "TRUE",
        "lat": 9.8818,
        "long": 78.1125
    },
    {
        "id": 3136,
        "name": "Avidha",
        "country_id": 76,
        "is_active": "TRUE",
        "lat": 21.6651,
        "long": 73.0366
    },
    {
        "id": 3144,
        "name": "Avitanallur",
        "country_id": 76,
        "is_active": "TRUE",
        "lat": 11.5002,
        "long": 75.8059
    },
    {
        "id": 3163,
        "name": "Awankh",
        "country_id": 76,
        "is_active": "TRUE",
        "lat": 32.1392,
        "long": 75.4611
    },
    {
        "id": 3165,
        "name": "Awantipur",
        "country_id": 76,
        "is_active": "TRUE",
        "lat": 33.9233,
        "long": 75.0128
    },
    {
        "id": 3190,
        "name": "Ayanavelikulangara Tekku",
        "country_id": 76,
        "is_active": "TRUE",
        "lat": 9.0436,
        "long": 76.5199
    },
    {
        "id": 3192,
        "name": "Ayanikkad",
        "country_id": 76,
        "is_active": "TRUE",
        "lat": 10.458,
        "long": 76.126
    },
    {
        "id": 3196,
        "name": "Ayas",
        "country_id": 76,
        "is_active": "TRUE",
        "lat": 24.2508,
        "long": 87.7784
    },
    {
        "id": 3204,
        "name": "Ayikudi",
        "country_id": 76,
        "is_active": "TRUE",
        "lat": 9.0032,
        "long": 77.3449
    },
    {
        "id": 3205,
        "name": "Ayinikkad",
        "country_id": 76,
        "is_active": "TRUE",
        "lat": 11.4974,
        "long": 75.72
    },
    {
        "id": 3206,
        "name": "Ayirapuram",
        "country_id": 76,
        "is_active": "TRUE",
        "lat": 9.88,
        "long": 76.3
    },
    {
        "id": 3207,
        "name": "Ayirurpara",
        "country_id": 76,
        "is_active": "TRUE",
        "lat": 8.503,
        "long": 76.9522
    },
    {
        "id": 3211,
        "name": "Aymangala",
        "country_id": 76,
        "is_active": "TRUE",
        "lat": 12.0333,
        "long": 75.7333
    },
    {
        "id": 3215,
        "name": "Ayodhyapattanam",
        "country_id": 76,
        "is_active": "TRUE",
        "lat": 11.6755,
        "long": 78.2409
    },
    {
        "id": 3238,
        "name": "Ayyagarpet",
        "country_id": 76,
        "is_active": "TRUE",
        "lat": 17.2197,
        "long": 80.8339
    },
    {
        "id": 3239,
        "name": "Ayyampalaiyam",
        "country_id": 76,
        "is_active": "TRUE",
        "lat": 10.2253,
        "long": 77.7485
    },
    {
        "id": 3240,
        "name": "Ayyampettai",
        "country_id": 76,
        "is_active": "TRUE",
        "lat": 10.8971,
        "long": 79.1915
    },
    {
        "id": 3259,
        "name": "Azamnagar",
        "country_id": 76,
        "is_active": "TRUE",
        "lat": 25.5456,
        "long": 87.8294
    },
    {
        "id": 3270,
        "name": "Azhikkal",
        "country_id": 76,
        "is_active": "TRUE",
        "lat": 11.9076,
        "long": 75.3446
    },
    {
        "id": 3271,
        "name": "Azhikkod",
        "country_id": 76,
        "is_active": "TRUE",
        "lat": 11.9076,
        "long": 75.3446
    },
    {
        "id": 3273,
        "name": "Azizpur Chande",
        "country_id": 76,
        "is_active": "TRUE",
        "lat": 25.7932,
        "long": 85.5945
    },
    {
        "id": 3303,
        "name": "Baba Bakala",
        "country_id": 76,
        "is_active": "TRUE",
        "lat": 31.555,
        "long": 75.2656
    },
    {
        "id": 3309,
        "name": "Babai",
        "country_id": 76,
        "is_active": "TRUE",
        "lat": 22.7026,
        "long": 77.9349
    },
    {
        "id": 3310,
        "name": "Babai Kalan",
        "country_id": 76,
        "is_active": "TRUE",
        "lat": 22.8313,
        "long": 78.6774
    },
    {
        "id": 3319,
        "name": "Babhanganwa",
        "country_id": 76,
        "is_active": "TRUE",
        "lat": 26.1398,
        "long": 86.8464
    },
    {
        "id": 3320,
        "name": "Babhangaon",
        "country_id": 76,
        "is_active": "TRUE",
        "lat": 25.7897,
        "long": 86.9767
    },
    {
        "id": 3321,
        "name": "Babhangawan",
        "country_id": 76,
        "is_active": "TRUE",
        "lat": 25.3674,
        "long": 86.9501
    },
    {
        "id": 3322,
        "name": "Babhani Bholwa",
        "country_id": 76,
        "is_active": "TRUE",
        "lat": 26.0876,
        "long": 86.7456
    },
    {
        "id": 3323,
        "name": "Babhantoli",
        "country_id": 76,
        "is_active": "TRUE",
        "lat": 26.252,
        "long": 87.926
    },
    {
        "id": 3324,
        "name": "Babhniyawan",
        "country_id": 76,
        "is_active": "TRUE",
        "lat": 25.4943,
        "long": 84.4815
    },
    {
        "id": 3325,
        "name": "Babhnoul",
        "country_id": 76,
        "is_active": "TRUE",
        "lat": 25.3202,
        "long": 84.2128
    },
    {
        "id": 3330,
        "name": "Babra",
        "country_id": 76,
        "is_active": "TRUE",
        "lat": 21.8442,
        "long": 71.3042
    },
    {
        "id": 3332,
        "name": "Babura",
        "country_id": 76,
        "is_active": "TRUE",
        "lat": 25.6838,
        "long": 84.7825
    },
    {
        "id": 3346,
        "name": "Bachchannapet",
        "country_id": 76,
        "is_active": "TRUE",
        "lat": 17.7883,
        "long": 79.0349
    },
    {
        "id": 3347,
        "name": "Bachhauta",
        "country_id": 76,
        "is_active": "TRUE",
        "lat": 25.5242,
        "long": 86.4606
    },
    {
        "id": 3348,
        "name": "Bachhraon",
        "country_id": 76,
        "is_active": "TRUE",
        "lat": 28.93,
        "long": 78.22
    },
    {
        "id": 3350,
        "name": "Bachra",
        "country_id": 76,
        "is_active": "TRUE",
        "lat": 23.6886,
        "long": 85.0703
    },
    {
        "id": 3446,
        "name": "Bada Barabil",
        "country_id": 76,
        "is_active": "TRUE",
        "lat": 22.12,
        "long": 85.4
    },
    {
        "id": 3447,
        "name": "Badagabettu",
        "country_id": 76,
        "is_active": "TRUE",
        "lat": 13.3335,
        "long": 74.7999
    },
    {
        "id": 3451,
        "name": "Badami",
        "country_id": 76,
        "is_active": "TRUE",
        "lat": 15.92,
        "long": 75.6803
    },
    {
        "id": 3452,
        "name": "Badanahatti",
        "country_id": 76,
        "is_active": "TRUE",
        "lat": 15.3176,
        "long": 76.8258
    },
    {
        "id": 3453,
        "name": "Badantola",
        "country_id": 76,
        "is_active": "TRUE",
        "lat": 25.2517,
        "long": 87.842
    },
    {
        "id": 3454,
        "name": "Badarpur",
        "country_id": 76,
        "is_active": "TRUE",
        "lat": 24.8685,
        "long": 92.5961
    },
    {
        "id": 3455,
        "name": "Badarwas",
        "country_id": 76,
        "is_active": "TRUE",
        "lat": 24.9752,
        "long": 77.5649
    },
    {
        "id": 3460,
        "name": "Badepalli",
        "country_id": 76,
        "is_active": "TRUE",
        "lat": 16.7549,
        "long": 78.1443
    },
    {
        "id": 3465,
        "name": "Badiadka",
        "country_id": 76,
        "is_active": "TRUE",
        "lat": 12.5833,
        "long": 75.0667
    },
    {
        "id": 3469,
        "name": "Badkulla",
        "country_id": 76,
        "is_active": "TRUE",
        "lat": 23.3036,
        "long": 88.5302
    },
    {
        "id": 3470,
        "name": "Badnawar",
        "country_id": 76,
        "is_active": "TRUE",
        "lat": 23.0218,
        "long": 75.2327
    },
    {
        "id": 3471,
        "name": "Badnor",
        "country_id": 76,
        "is_active": "TRUE",
        "lat": 25.8355,
        "long": 74.2775
    },
    {
        "id": 3477,
        "name": "Badru Khan",
        "country_id": 76,
        "is_active": "TRUE",
        "lat": 30.2523,
        "long": 75.7917
    },
    {
        "id": 3478,
        "name": "Badshahpur",
        "country_id": 76,
        "is_active": "TRUE",
        "lat": 28.393,
        "long": 77.048
    },
    {
        "id": 3480,
        "name": "Baduria",
        "country_id": 76,
        "is_active": "TRUE",
        "lat": 22.74,
        "long": 88.79
    },
    {
        "id": 3481,
        "name": "Baduriatola",
        "country_id": 76,
        "is_active": "TRUE",
        "lat": 24.0928,
        "long": 84.0895
    },
    {
        "id": 3482,
        "name": "Badurpalle",
        "country_id": 76,
        "is_active": "TRUE",
        "lat": 17.5468,
        "long": 78.365
    },
    {
        "id": 3483,
        "name": "Badvel",
        "country_id": 76,
        "is_active": "TRUE",
        "lat": 14.75,
        "long": 79.05
    },
    {
        "id": 3502,
        "name": "Bag",
        "country_id": 76,
        "is_active": "TRUE",
        "lat": 22.359,
        "long": 74.7905
    },
    {
        "id": 3508,
        "name": "Bagaha",
        "country_id": 76,
        "is_active": "TRUE",
        "lat": 27.0992,
        "long": 84.09
    },
    {
        "id": 3509,
        "name": "Bagahi",
        "country_id": 76,
        "is_active": "TRUE",
        "lat": 26.7632,
        "long": 84.467
    },
    {
        "id": 3510,
        "name": "Bagalkot",
        "country_id": 76,
        "is_active": "TRUE",
        "lat": 16.1817,
        "long": 75.6958
    },
    {
        "id": 3511,
        "name": "Bagalur",
        "country_id": 76,
        "is_active": "TRUE",
        "lat": 12.8333,
        "long": 77.8667
    },
    {
        "id": 3512,
        "name": "Bagalvad",
        "country_id": 76,
        "is_active": "TRUE",
        "lat": 16.0528,
        "long": 76.8877
    },
    {
        "id": 3518,
        "name": "Bagasra",
        "country_id": 76,
        "is_active": "TRUE",
        "lat": 21.4833,
        "long": 70.95
    },
    {
        "id": 3519,
        "name": "Bagaura",
        "country_id": 76,
        "is_active": "TRUE",
        "lat": 26.0388,
        "long": 84.4624
    },
    {
        "id": 3520,
        "name": "Bagchini",
        "country_id": 76,
        "is_active": "TRUE",
        "lat": 26.4817,
        "long": 77.8185
    },
    {
        "id": 3524,
        "name": "Bagepalli",
        "country_id": 76,
        "is_active": "TRUE",
        "lat": 13.78,
        "long": 77.79
    },
    {
        "id": 3525,
        "name": "Bageshwar",
        "country_id": 76,
        "is_active": "TRUE",
        "lat": 29.838,
        "long": 79.771
    },
    {
        "id": 3526,
        "name": "Bagewadi",
        "country_id": 76,
        "is_active": "TRUE",
        "lat": 16.29,
        "long": 74.6
    },
    {
        "id": 3529,
        "name": "Bagha Purana",
        "country_id": 76,
        "is_active": "TRUE",
        "lat": 30.6881,
        "long": 75.0984
    },
    {
        "id": 3530,
        "name": "Baghambarpur",
        "country_id": 76,
        "is_active": "TRUE",
        "lat": 26.8075,
        "long": 84.4059
    },
    {
        "id": 3531,
        "name": "Baghant",
        "country_id": 76,
        "is_active": "TRUE",
        "lat": 26.1748,
        "long": 86.1705
    },
    {
        "id": 3532,
        "name": "Baghauni",
        "country_id": 76,
        "is_active": "TRUE",
        "lat": 25.9338,
        "long": 86.0594
    },
    {
        "id": 3534,
        "name": "Baghduma",
        "country_id": 76,
        "is_active": "TRUE",
        "lat": 24.8223,
        "long": 87.0116
    },
    {
        "id": 3541,
        "name": "Baghmari",
        "country_id": 76,
        "is_active": "TRUE",
        "lat": 20.2206,
        "long": 85.5014
    },
    {
        "id": 3542,
        "name": "Baghmaria",
        "country_id": 76,
        "is_active": "TRUE",
        "lat": 26.44,
        "long": 86.43
    },
    {
        "id": 3543,
        "name": "Baghpat",
        "country_id": 76,
        "is_active": "TRUE",
        "lat": 28.95,
        "long": 77.22
    },
    {
        "id": 3544,
        "name": "Baghra",
        "country_id": 76,
        "is_active": "TRUE",
        "lat": 25.5597,
        "long": 85.5841
    },
    {
        "id": 3547,
        "name": "Bagli",
        "country_id": 76,
        "is_active": "TRUE",
        "lat": 22.6412,
        "long": 76.3488
    },
    {
        "id": 3550,
        "name": "Bagnan",
        "country_id": 76,
        "is_active": "TRUE",
        "lat": 22.47,
        "long": 87.97
    },
    {
        "id": 3562,
        "name": "Bagor",
        "country_id": 76,
        "is_active": "TRUE",
        "lat": 25.3575,
        "long": 74.3731
    },
    {
        "id": 3564,
        "name": "Bagra",
        "country_id": 76,
        "is_active": "TRUE",
        "lat": 25.2,
        "long": 72.5833
    },
    {
        "id": 3567,
        "name": "Bagrinagar",
        "country_id": 76,
        "is_active": "TRUE",
        "lat": 25.9,
        "long": 73.8
    },
    {
        "id": 3573,
        "name": "Bagula",
        "country_id": 76,
        "is_active": "TRUE",
        "lat": 23.335,
        "long": 88.644
    },
    {
        "id": 3579,
        "name": "Bahadarpur",
        "country_id": 76,
        "is_active": "TRUE",
        "lat": 21.2922,
        "long": 76.1806
    },
    {
        "id": 3580,
        "name": "Bahadurganj",
        "country_id": 76,
        "is_active": "TRUE",
        "lat": 26.2617,
        "long": 87.8244
    },
    {
        "id": 3581,
        "name": "Bahadurpur",
        "country_id": 76,
        "is_active": "TRUE",
        "lat": 25.4522,
        "long": 85.6303
    },
    {
        "id": 3582,
        "name": "Bahagalpur",
        "country_id": 76,
        "is_active": "TRUE",
        "lat": 24.5934,
        "long": 87.9536
    },
    {
        "id": 3585,
        "name": "Baharampur",
        "country_id": 76,
        "is_active": "TRUE",
        "lat": 24.1,
        "long": 88.25
    },
    {
        "id": 3588,
        "name": "Baharu",
        "country_id": 76,
        "is_active": "TRUE",
        "lat": 22.204,
        "long": 88.4283
    },
    {
        "id": 3593,
        "name": "Baheri",
        "country_id": 76,
        "is_active": "TRUE",
        "lat": 25.9426,
        "long": 86.0471
    },
    {
        "id": 3601,
        "name": "Bahraigh",
        "country_id": 76,
        "is_active": "TRUE",
        "lat": 27.575,
        "long": 81.594
    },
    {
        "id": 3603,
        "name": "Bahutal",
        "country_id": 76,
        "is_active": "TRUE",
        "lat": 24.5714,
        "long": 87.8971
    },
    {
        "id": 3624,
        "name": "Baihar",
        "country_id": 76,
        "is_active": "TRUE",
        "lat": 22.1013,
        "long": 80.5497
    },
    {
        "id": 3627,
        "name": "Baikatpur",
        "country_id": 76,
        "is_active": "TRUE",
        "lat": 25.4939,
        "long": 85.3792
    },
    {
        "id": 3629,
        "name": "Baikunthapur",
        "country_id": 76,
        "is_active": "TRUE",
        "lat": 22.9808,
        "long": 88.2058
    },
    {
        "id": 3630,
        "name": "Baikunthpur",
        "country_id": 76,
        "is_active": "TRUE",
        "lat": 24.7277,
        "long": 81.4098
    },
    {
        "id": 3637,
        "name": "Bail-Hongal",
        "country_id": 76,
        "is_active": "TRUE",
        "lat": 15.8137,
        "long": 74.8589
    },
    {
        "id": 3645,
        "name": "Baindur",
        "country_id": 76,
        "is_active": "TRUE",
        "lat": 13.866,
        "long": 74.6333
    },
    {
        "id": 3649,
        "name": "Bairagnia",
        "country_id": 76,
        "is_active": "TRUE",
        "lat": 26.7381,
        "long": 85.2736
    },
    {
        "id": 3650,
        "name": "Bairi Chak",
        "country_id": 76,
        "is_active": "TRUE",
        "lat": 24.6951,
        "long": 84.9913
    },
    {
        "id": 3651,
        "name": "Bairia",
        "country_id": 76,
        "is_active": "TRUE",
        "lat": 25.7583,
        "long": 84.1489
    },
    {
        "id": 3652,
        "name": "Bairia",
        "country_id": 76,
        "is_active": "TRUE",
        "lat": 25.5563,
        "long": 85.1835
    },
    {
        "id": 3653,
        "name": "Bairia",
        "country_id": 76,
        "is_active": "TRUE",
        "lat": 26.7373,
        "long": 84.4371
    },
    {
        "id": 3654,
        "name": "Bairiya",
        "country_id": 76,
        "is_active": "TRUE",
        "lat": 26.3392,
        "long": 84.8236
    },
    {
        "id": 3656,
        "name": "Bairo",
        "country_id": 76,
        "is_active": "TRUE",
        "lat": 26.0144,
        "long": 86.51
    },
    {
        "id": 3659,
        "name": "Baisa",
        "country_id": 76,
        "is_active": "TRUE",
        "lat": 25.3552,
        "long": 86.7246
    },
    {
        "id": 3666,
        "name": "Baisuhalli",
        "country_id": 76,
        "is_active": "TRUE",
        "lat": 12.2064,
        "long": 78.1906
    },
    {
        "id": 3673,
        "name": "Baj Baj",
        "country_id": 76,
        "is_active": "TRUE",
        "lat": 22.4828,
        "long": 88.1818
    },
    {
        "id": 3675,
        "name": "Bajala",
        "country_id": 76,
        "is_active": "TRUE",
        "lat": 12.8537,
        "long": 74.8853
    },
    {
        "id": 3682,
        "name": "Bajpe",
        "country_id": 76,
        "is_active": "TRUE",
        "lat": 12.9803,
        "long": 74.8832
    },
    {
        "id": 3684,
        "name": "Bajwara",
        "country_id": 76,
        "is_active": "TRUE",
        "lat": 31.515,
        "long": 75.9494
    },
    {
        "id": 3688,
        "name": "Bakarpur Ogairah",
        "country_id": 76,
        "is_active": "TRUE",
        "lat": 25.3294,
        "long": 87.5138
    },
    {
        "id": 3695,
        "name": "Bakharia",
        "country_id": 76,
        "is_active": "TRUE",
        "lat": 26.7666,
        "long": 84.6619
    },
    {
        "id": 3700,
        "name": "Bakhri",
        "country_id": 76,
        "is_active": "TRUE",
        "lat": 25.5989,
        "long": 86.2607
    },
    {
        "id": 3701,
        "name": "Bakhtawarpur",
        "country_id": 76,
        "is_active": "TRUE",
        "lat": 28.821,
        "long": 77.166
    },
    {
        "id": 3702,
        "name": "Bakhtiyarpur",
        "country_id": 76,
        "is_active": "TRUE",
        "lat": 25.459,
        "long": 85.539
    },
    {
        "id": 3708,
        "name": "Bakwa",
        "country_id": 76,
        "is_active": "TRUE",
        "lat": 26.0601,
        "long": 86.4124
    },
    {
        "id": 3718,
        "name": "Baladharmaram",
        "country_id": 76,
        "is_active": "TRUE",
        "lat": 17.4104,
        "long": 79.969
    },
    {
        "id": 3719,
        "name": "Balagam",
        "country_id": 76,
        "is_active": "TRUE",
        "lat": 21.3694,
        "long": 70.0981
    },
    {
        "id": 3726,
        "name": "Balakrishnanpatti",
        "country_id": 76,
        "is_active": "TRUE",
        "lat": 11.2511,
        "long": 78.4736
    },
    {
        "id": 3732,
        "name": "Balangir",
        "country_id": 76,
        "is_active": "TRUE",
        "lat": 20.72,
        "long": 83.48
    },
    {
        "id": 3737,
        "name": "Balarampur",
        "country_id": 76,
        "is_active": "TRUE",
        "lat": 26.2432,
        "long": 89.5863
    },
    {
        "id": 3738,
        "name": "Balarampur",
        "country_id": 76,
        "is_active": "TRUE",
        "lat": 23.12,
        "long": 86.22
    },
    {
        "id": 3739,
        "name": "Balarampuram",
        "country_id": 76,
        "is_active": "TRUE",
        "lat": 8.3833,
        "long": 77.0833
    },
    {
        "id": 3740,
        "name": "Balasamudram",
        "country_id": 76,
        "is_active": "TRUE",
        "lat": 10.419,
        "long": 77.4992
    },
    {
        "id": 3744,
        "name": "Balasore",
        "country_id": 76,
        "is_active": "TRUE",
        "lat": 21.5033,
        "long": 86.925
    },
    {
        "id": 3749,
        "name": "Balaungi",
        "country_id": 76,
        "is_active": "TRUE",
        "lat": 30.7306,
        "long": 76.6937
    },
    {
        "id": 3759,
        "name": "Baldeogarh",
        "country_id": 76,
        "is_active": "TRUE",
        "lat": 24.7562,
        "long": 79.0672
    },
    {
        "id": 3765,
        "name": "Balehonnur",
        "country_id": 76,
        "is_active": "TRUE",
        "lat": 13.35,
        "long": 75.46
    },
    {
        "id": 3774,
        "name": "Balha",
        "country_id": 76,
        "is_active": "TRUE",
        "lat": 25.5468,
        "long": 86.5683
    },
    {
        "id": 3776,
        "name": "Balhapur",
        "country_id": 76,
        "is_active": "TRUE",
        "lat": 25.3511,
        "long": 86.2122
    },
    {
        "id": 3777,
        "name": "Bali",
        "country_id": 76,
        "is_active": "TRUE",
        "lat": 22.65,
        "long": 88.34
    },
    {
        "id": 3778,
        "name": "Balia",
        "country_id": 76,
        "is_active": "TRUE",
        "lat": 24.2433,
        "long": 75.8061
    },
    {
        "id": 3780,
        "name": "Baligaon",
        "country_id": 76,
        "is_active": "TRUE",
        "lat": 25.4196,
        "long": 84.4951
    },
    {
        "id": 3781,
        "name": "Balighattam",
        "country_id": 76,
        "is_active": "TRUE",
        "lat": 17.651,
        "long": 82.6059
    },
    {
        "id": 3798,
        "name": "Balkonda",
        "country_id": 76,
        "is_active": "TRUE",
        "lat": 18.8667,
        "long": 78.35
    },
    {
        "id": 3803,
        "name": "Ballia",
        "country_id": 76,
        "is_active": "TRUE",
        "lat": 25.7604,
        "long": 84.1471
    },
    {
        "id": 3819,
        "name": "Balrampur",
        "country_id": 76,
        "is_active": "TRUE",
        "lat": 27.43,
        "long": 82.18
    },
    {
        "id": 3826,
        "name": "Baltara",
        "country_id": 76,
        "is_active": "TRUE",
        "lat": 25.5116,
        "long": 86.7232
    },
    {
        "id": 3832,
        "name": "Balua",
        "country_id": 76,
        "is_active": "TRUE",
        "lat": 26.3272,
        "long": 87.6231
    },
    {
        "id": 3833,
        "name": "Balua Rampur",
        "country_id": 76,
        "is_active": "TRUE",
        "lat": 26.7777,
        "long": 84.428
    },
    {
        "id": 3835,
        "name": "Balugan",
        "country_id": 76,
        "is_active": "TRUE",
        "lat": 19.7333,
        "long": 85.2167
    },
    {
        "id": 3836,
        "name": "Balumath",
        "country_id": 76,
        "is_active": "TRUE",
        "lat": 23.8298,
        "long": 84.7888
    },
    {
        "id": 3839,
        "name": "Balupur",
        "country_id": 76,
        "is_active": "TRUE",
        "lat": 25.2611,
        "long": 87.8947
    },
    {
        "id": 3840,
        "name": "Balurghat",
        "country_id": 76,
        "is_active": "TRUE",
        "lat": 25.22,
        "long": 88.76
    },
    {
        "id": 3841,
        "name": "Balussheri",
        "country_id": 76,
        "is_active": "TRUE",
        "lat": 11.45,
        "long": 75.83
    },
    {
        "id": 3842,
        "name": "Balvadi",
        "country_id": 76,
        "is_active": "TRUE",
        "lat": 21.4412,
        "long": 75.223
    },
    {
        "id": 3845,
        "name": "Balwa",
        "country_id": 76,
        "is_active": "TRUE",
        "lat": 29.406,
        "long": 77.308
    },
    {
        "id": 3856,
        "name": "Bamaiya Harlal",
        "country_id": 76,
        "is_active": "TRUE",
        "lat": 25.6664,
        "long": 85.8802
    },
    {
        "id": 3858,
        "name": "Bamaur",
        "country_id": 76,
        "is_active": "TRUE",
        "lat": 26.339,
        "long": 78.101
    },
    {
        "id": 3878,
        "name": "Bamhni",
        "country_id": 76,
        "is_active": "TRUE",
        "lat": 22.4822,
        "long": 80.3716
    },
    {
        "id": 3880,
        "name": "Bamora",
        "country_id": 76,
        "is_active": "TRUE",
        "lat": 24.0554,
        "long": 78.0893
    },
    {
        "id": 4057,
        "name": "Banagi",
        "country_id": 76,
        "is_active": "TRUE",
        "lat": 13.61,
        "long": 75.53
    },
    {
        "id": 4063,
        "name": "Banapur",
        "country_id": 76,
        "is_active": "TRUE",
        "lat": 19.7789,
        "long": 85.1703
    },
    {
        "id": 4065,
        "name": "Banaso",
        "country_id": 76,
        "is_active": "TRUE",
        "lat": 23.9884,
        "long": 85.7866
    },
    {
        "id": 4068,
        "name": "Banavar",
        "country_id": 76,
        "is_active": "TRUE",
        "lat": 13.4167,
        "long": 76.1667
    },
    {
        "id": 4072,
        "name": "Banbhag",
        "country_id": 76,
        "is_active": "TRUE",
        "lat": 25.7919,
        "long": 87.414
    },
    {
        "id": 4078,
        "name": "Banda",
        "country_id": 76,
        "is_active": "TRUE",
        "lat": 24.0449,
        "long": 78.9609
    },
    {
        "id": 4081,
        "name": "Bandalli",
        "country_id": 76,
        "is_active": "TRUE",
        "lat": 12.164,
        "long": 77.3504
    },
    {
        "id": 4082,
        "name": "Bandamurlanka",
        "country_id": 76,
        "is_active": "TRUE",
        "lat": 16.517,
        "long": 81.988
    },
    {
        "id": 4106,
        "name": "Bandipura",
        "country_id": 76,
        "is_active": "TRUE",
        "lat": 34.4167,
        "long": 74.65
    },
    {
        "id": 4109,
        "name": "Bandlaguda",
        "country_id": 76,
        "is_active": "TRUE",
        "lat": 17.3543,
        "long": 78.3853
    },
    {
        "id": 4111,
        "name": "Bandora",
        "country_id": 76,
        "is_active": "TRUE",
        "lat": 15.4082,
        "long": 73.9813
    },
    {
        "id": 4116,
        "name": "Bandwar",
        "country_id": 76,
        "is_active": "TRUE",
        "lat": 25.5093,
        "long": 86.1595
    },
    {
        "id": 4133,
        "name": "Banga",
        "country_id": 76,
        "is_active": "TRUE",
        "lat": 31.1887,
        "long": 75.9949
    },
    {
        "id": 4135,
        "name": "Bangalore",
        "country_id": 76,
        "is_active": "TRUE",
        "lat": 12.9789,
        "long": 77.5917
    },
    {
        "id": 4136,
        "name": "Banganapalle",
        "country_id": 76,
        "is_active": "TRUE",
        "lat": 15.3167,
        "long": 78.2333
    },
    {
        "id": 4137,
        "name": "Bangaon",
        "country_id": 76,
        "is_active": "TRUE",
        "lat": 23.07,
        "long": 88.82
    },
    {
        "id": 4138,
        "name": "Bangaon",
        "country_id": 76,
        "is_active": "TRUE",
        "lat": 25.8673,
        "long": 86.5115
    },
    {
        "id": 4139,
        "name": "Bangaon",
        "country_id": 76,
        "is_active": "TRUE",
        "lat": 26.3081,
        "long": 87.8833
    },
    {
        "id": 4144,
        "name": "Bangawan",
        "country_id": 76,
        "is_active": "TRUE",
        "lat": 26.0427,
        "long": 87.4202
    },
    {
        "id": 4152,
        "name": "Bangramanjeshvara",
        "country_id": 76,
        "is_active": "TRUE",
        "lat": 12.6833,
        "long": 75
    },
    {
        "id": 4159,
        "name": "Banhatti",
        "country_id": 76,
        "is_active": "TRUE",
        "lat": 16.3853,
        "long": 75.1494
    },
    {
        "id": 4181,
        "name": "Bank",
        "country_id": 76,
        "is_active": "TRUE",
        "lat": 24.9539,
        "long": 84.1928
    },
    {
        "id": 4182,
        "name": "Bankapur",
        "country_id": 76,
        "is_active": "TRUE",
        "lat": 14.923,
        "long": 75.2622
    },
    {
        "id": 4184,
        "name": "Bankheri",
        "country_id": 76,
        "is_active": "TRUE",
        "lat": 22.7696,
        "long": 78.5341
    },
    {
        "id": 4185,
        "name": "Banki",
        "country_id": 76,
        "is_active": "TRUE",
        "lat": 20.3791,
        "long": 85.5295
    },
    {
        "id": 4186,
        "name": "Banki",
        "country_id": 76,
        "is_active": "TRUE",
        "lat": 26.1497,
        "long": 86.3626
    },
    {
        "id": 4188,
        "name": "Bankra",
        "country_id": 76,
        "is_active": "TRUE",
        "lat": 22.63,
        "long": 88.3
    },
    {
        "id": 4189,
        "name": "Bankura",
        "country_id": 76,
        "is_active": "TRUE",
        "lat": 23.25,
        "long": 87.07
    },
    {
        "id": 4193,
        "name": "Banni",
        "country_id": 76,
        "is_active": "TRUE",
        "lat": 25.4692,
        "long": 86.6068
    },
    {
        "id": 4196,
        "name": "Bannur",
        "country_id": 76,
        "is_active": "TRUE",
        "lat": 12.3329,
        "long": 76.862
    },
    {
        "id": 4207,
        "name": "Bansbari",
        "country_id": 76,
        "is_active": "TRUE",
        "lat": 26.1934,
        "long": 87.4498
    },
    {
        "id": 4208,
        "name": "Bansbaria",
        "country_id": 76,
        "is_active": "TRUE",
        "lat": 22.97,
        "long": 88.4
    },
    {
        "id": 4212,
        "name": "Banswada",
        "country_id": 76,
        "is_active": "TRUE",
        "lat": 18.3833,
        "long": 77.8833
    },
    {
        "id": 4213,
        "name": "Banta",
        "country_id": 76,
        "is_active": "TRUE",
        "lat": 24.2323,
        "long": 87.8749
    },
    {
        "id": 4219,
        "name": "Bantval",
        "country_id": 76,
        "is_active": "TRUE",
        "lat": 12.8905,
        "long": 75.0349
    },
    {
        "id": 4220,
        "name": "Banu Chhapra",
        "country_id": 76,
        "is_active": "TRUE",
        "lat": 26.8098,
        "long": 84.5201
    },
    {
        "id": 4233,
        "name": "Bapatla",
        "country_id": 76,
        "is_active": "TRUE",
        "lat": 15.9044,
        "long": 80.4675
    },
    {
        "id": 4234,
        "name": "Bapaura",
        "country_id": 76,
        "is_active": "TRUE",
        "lat": 28.815,
        "long": 76.063
    },
    {
        "id": 4236,
        "name": "Baqiabad",
        "country_id": 76,
        "is_active": "TRUE",
        "lat": 25.1,
        "long": 82.9
    },
    {
        "id": 4239,
        "name": "Bar Bigha",
        "country_id": 76,
        "is_active": "TRUE",
        "lat": 25.2186,
        "long": 85.7332
    },
    {
        "id": 4240,
        "name": "Bara",
        "country_id": 76,
        "is_active": "TRUE",
        "lat": 24.3146,
        "long": 87.9643
    },
    {
        "id": 4241,
        "name": "Bara",
        "country_id": 76,
        "is_active": "TRUE",
        "lat": 25.9286,
        "long": 86.5237
    },
    {
        "id": 4242,
        "name": "Bara Belun",
        "country_id": 76,
        "is_active": "TRUE",
        "lat": 23.4007,
        "long": 87.9733
    },
    {
        "id": 4243,
        "name": "Bara Khurd",
        "country_id": 76,
        "is_active": "TRUE",
        "lat": 25.2599,
        "long": 85.4325
    },
    {
        "id": 4244,
        "name": "Bara Malehra",
        "country_id": 76,
        "is_active": "TRUE",
        "lat": 24.5681,
        "long": 79.3069
    },
    {
        "id": 4252,
        "name": "Baragaon",
        "country_id": 76,
        "is_active": "TRUE",
        "lat": 24.5682,
        "long": 79.0185
    },
    {
        "id": 4253,
        "name": "Baragaon",
        "country_id": 76,
        "is_active": "TRUE",
        "lat": 25.1348,
        "long": 85.432
    },
    {
        "id": 4256,
        "name": "Barah",
        "country_id": 76,
        "is_active": "TRUE",
        "lat": 25.3885,
        "long": 85.4912
    },
    {
        "id": 4258,
        "name": "Barahari",
        "country_id": 76,
        "is_active": "TRUE",
        "lat": 25.7652,
        "long": 87.0937
    },
    {
        "id": 4259,
        "name": "Barahbatta",
        "country_id": 76,
        "is_active": "TRUE",
        "lat": 25.7727,
        "long": 85.7522
    },
    {
        "id": 4260,
        "name": "Barahi",
        "country_id": 76,
        "is_active": "TRUE",
        "lat": 25.9725,
        "long": 86.7452
    },
    {
        "id": 4261,
        "name": "Barahkurwa",
        "country_id": 76,
        "is_active": "TRUE",
        "lat": 26.146,
        "long": 86.9237
    },
    {
        "id": 4263,
        "name": "Barahpur",
        "country_id": 76,
        "is_active": "TRUE",
        "lat": 25.4192,
        "long": 85.8762
    },
    {
        "id": 4264,
        "name": "Barahra",
        "country_id": 76,
        "is_active": "TRUE",
        "lat": 26.2356,
        "long": 86.5615
    },
    {
        "id": 4265,
        "name": "Barai",
        "country_id": 76,
        "is_active": "TRUE",
        "lat": 26.3717,
        "long": 86.0134
    },
    {
        "id": 4266,
        "name": "Baraidih",
        "country_id": 76,
        "is_active": "TRUE",
        "lat": 25.9798,
        "long": 86.1434
    },
    {
        "id": 4267,
        "name": "Barajor",
        "country_id": 76,
        "is_active": "TRUE",
        "lat": 24.7992,
        "long": 86.3731
    },
    {
        "id": 4272,
        "name": "Barakpur",
        "country_id": 76,
        "is_active": "TRUE",
        "lat": 22.76,
        "long": 88.37
    },
    {
        "id": 4274,
        "name": "Baramati",
        "country_id": 76,
        "is_active": "TRUE",
        "lat": 18.15,
        "long": 74.58
    },
    {
        "id": 4275,
        "name": "Baramula",
        "country_id": 76,
        "is_active": "TRUE",
        "lat": 34.198,
        "long": 74.364
    },
    {
        "id": 4286,
        "name": "Baraon",
        "country_id": 76,
        "is_active": "TRUE",
        "lat": 25.4551,
        "long": 84.2661
    },
    {
        "id": 4288,
        "name": "Bararam",
        "country_id": 76,
        "is_active": "TRUE",
        "lat": 26.1572,
        "long": 84.3627
    },
    {
        "id": 4289,
        "name": "Barari",
        "country_id": 76,
        "is_active": "TRUE",
        "lat": 25.5068,
        "long": 87.3761
    },
    {
        "id": 4292,
        "name": "Barasat",
        "country_id": 76,
        "is_active": "TRUE",
        "lat": 22.72,
        "long": 88.48
    },
    {
        "id": 4293,
        "name": "Barauli",
        "country_id": 76,
        "is_active": "TRUE",
        "lat": 26.3815,
        "long": 84.5872
    },
    {
        "id": 4302,
        "name": "Barbana",
        "country_id": 76,
        "is_active": "TRUE",
        "lat": 26.0719,
        "long": 87.2539
    },
    {
        "id": 4326,
        "name": "Barddhaman",
        "country_id": 76,
        "is_active": "TRUE",
        "lat": 23.2333,
        "long": 87.8667
    },
    {
        "id": 4329,
        "name": "Bardiha Turki",
        "country_id": 76,
        "is_active": "TRUE",
        "lat": 25.8059,
        "long": 85.5441
    },
    {
        "id": 4330,
        "name": "Bardipuram",
        "country_id": 76,
        "is_active": "TRUE",
        "lat": 18.6431,
        "long": 78.1584
    },
    {
        "id": 4332,
        "name": "Bardoli",
        "country_id": 76,
        "is_active": "TRUE",
        "lat": 21.12,
        "long": 73.12
    },
    {
        "id": 4336,
        "name": "Bareh",
        "country_id": 76,
        "is_active": "TRUE",
        "lat": 26.6786,
        "long": 78.1887
    },
    {
        "id": 4338,
        "name": "Bareilly",
        "country_id": 76,
        "is_active": "TRUE",
        "lat": 28.364,
        "long": 79.415
    },
    {
        "id": 4339,
        "name": "Bareja",
        "country_id": 76,
        "is_active": "TRUE",
        "lat": 22.85,
        "long": 72.5833
    },
    {
        "id": 4340,
        "name": "Barela",
        "country_id": 76,
        "is_active": "TRUE",
        "lat": 23.0968,
        "long": 80.0508
    },
    {
        "id": 4344,
        "name": "Baretha",
        "country_id": 76,
        "is_active": "TRUE",
        "lat": 25.5258,
        "long": 87.4485
    },
    {
        "id": 4346,
        "name": "Bargaon",
        "country_id": 76,
        "is_active": "TRUE",
        "lat": 25.3455,
        "long": 84.6607
    },
    {
        "id": 4347,
        "name": "Bargaon",
        "country_id": 76,
        "is_active": "TRUE",
        "lat": 23.1795,
        "long": 84.6991
    },
    {
        "id": 4349,
        "name": "Bargarh",
        "country_id": 76,
        "is_active": "TRUE",
        "lat": 21.3333,
        "long": 83.6167
    },
    {
        "id": 4352,
        "name": "Barghat",
        "country_id": 76,
        "is_active": "TRUE",
        "lat": 22.0306,
        "long": 79.7328
    },
    {
        "id": 4357,
        "name": "Bargur",
        "country_id": 76,
        "is_active": "TRUE",
        "lat": 12.5429,
        "long": 78.3574
    },
    {
        "id": 4359,
        "name": "Barhagarh",
        "country_id": 76,
        "is_active": "TRUE",
        "lat": 19.645,
        "long": 84.4079
    },
    {
        "id": 4360,
        "name": "Barhampur",
        "country_id": 76,
        "is_active": "TRUE",
        "lat": 26.3042,
        "long": 86.4729
    },
    {
        "id": 4361,
        "name": "Barhampur",
        "country_id": 76,
        "is_active": "TRUE",
        "lat": 25.5976,
        "long": 84.3011
    },
    {
        "id": 4362,
        "name": "Barhampur",
        "country_id": 76,
        "is_active": "TRUE",
        "lat": 26.3023,
        "long": 85.7476
    },
    {
        "id": 4363,
        "name": "Barhan",
        "country_id": 76,
        "is_active": "TRUE",
        "lat": 27.3299,
        "long": 78.1896
    },
    {
        "id": 4364,
        "name": "Barharia",
        "country_id": 76,
        "is_active": "TRUE",
        "lat": 26.3191,
        "long": 84.4547
    },
    {
        "id": 4365,
        "name": "Barharwa",
        "country_id": 76,
        "is_active": "TRUE",
        "lat": 24.8571,
        "long": 87.779
    },
    {
        "id": 4366,
        "name": "Barharwa Kalan",
        "country_id": 76,
        "is_active": "TRUE",
        "lat": 26.5434,
        "long": 84.8286
    },
    {
        "id": 4367,
        "name": "Barhauna",
        "country_id": 76,
        "is_active": "TRUE",
        "lat": 25.6043,
        "long": 85.7288
    },
    {
        "id": 4368,
        "name": "Barhauna",
        "country_id": 76,
        "is_active": "TRUE",
        "lat": 25.304,
        "long": 85.4216
    },
    {
        "id": 4369,
        "name": "Barhi",
        "country_id": 76,
        "is_active": "TRUE",
        "lat": 23.9033,
        "long": 80.8152
    },
    {
        "id": 4370,
        "name": "Barhi",
        "country_id": 76,
        "is_active": "TRUE",
        "lat": 24.3045,
        "long": 85.4195
    },
    {
        "id": 4371,
        "name": "Barhi",
        "country_id": 76,
        "is_active": "TRUE",
        "lat": 26.5714,
        "long": 86.0903
    },
    {
        "id": 4372,
        "name": "Barhi",
        "country_id": 76,
        "is_active": "TRUE",
        "lat": 26.4629,
        "long": 86.2771
    },
    {
        "id": 4373,
        "name": "Barhiya",
        "country_id": 76,
        "is_active": "TRUE",
        "lat": 25.2833,
        "long": 86.0333
    },
    {
        "id": 4374,
        "name": "Barhni",
        "country_id": 76,
        "is_active": "TRUE",
        "lat": 27.4972,
        "long": 82.7861
    },
    {
        "id": 4376,
        "name": "Bari",
        "country_id": 76,
        "is_active": "TRUE",
        "lat": 26.63,
        "long": 77.62
    },
    {
        "id": 4377,
        "name": "Bari",
        "country_id": 76,
        "is_active": "TRUE",
        "lat": 25.8769,
        "long": 86.1918
    },